[{"id":"847544201","lat":57.5406396333,"long":-4.4284455333,"name":"Mulbuie","most_recent":"2018-01-03-1684430065047167105","count":217},{"id":"1016504063","lat":57.5295430412,"long":-4.5591367478,"name":"Orrin Falls","most_recent":"2018-02-09-1710935643243958588","count":98},{"id":"1029615837","lat":57.2666666667,"long":-7.3166666667,"name":"South Uist","most_recent":"2017-08-14-1580808906833609365","count":68},{"id":"213650536","lat":51.526,"long":-0.078,"name":"Shoreditch","most_recent":"2017-09-06-1598008050327807935","count":54},{"id":"49143886","lat":51.4611780318,"long":-0.2166802887,"name":"Putney","most_recent":"2018-08-16-1847459827417103121","count":46},{"id":"469973249","lat":54.5,"long":-3.1666666667,"name":"Lake District","most_recent":"2015-01-12-896249043114223481","count":43},{"id":"1033488271","lat":57.51312,"long":-4.36746,"name":"Redcastle","most_recent":"2019-12-21-2204116095156344569","count":37},{"id":"320928369","lat":57.1514477409,"long":-2.0780181928,"name":"Aberdeen Beach Front","most_recent":"2016-04-30-1239708307155543965","count":28},{"id":"235881586","lat":58.2004585954,"long":-7.0104591169,"name":"Uig, Eilean Siar, United Kingdom","most_recent":"2018-02-14-1714751132311384641","count":27},{"id":"246994238","lat":57.5167,"long":-4.45,"name":"Muir Of Ord, Highland, United Kingdom","most_recent":"2021-07-18-2620660830692125269","count":26},{"id":"358582079","lat":57.167867602,"long":-2.0892221075,"name":"Seaton, Aberdeen","most_recent":"2015-11-26-1126795972791985460","count":26},{"id":"337750034","lat":57.637624,"long":-3.5652875,"name":"Culbin Forest","most_recent":"2020-08-12-2373986700729935800","count":25},{"id":"818879292","lat":57.6333,"long":-4.05,"name":"Upper Eathie, Highland, United Kingdom","most_recent":"2021-07-18-2620662675934110816","count":24},{"id":"68399","lat":51.4669444444,"long":-0.2130555556,"name":"Putney Bridge","most_recent":"2018-08-22-1851826700268966586","count":23},{"id":"223196746","lat":51.519,"long":-0.0835,"name":"Broadgate","most_recent":"2019-01-21-1962005440267209520","count":22},{"id":"1024811590","lat":57.66012,"long":-3.6122,"name":"Findhorn Beach","most_recent":"2016-10-17-1363078224602863677","count":19},{"id":"222039596","lat":51.566,"long":-0.1338,"name":"Archway, London","most_recent":"2020-09-20-2402577824876779862","count":19},{"id":"231401561","lat":52.05,"long":-2.71667,"name":"Hereford, Herefordshire","most_recent":"2019-05-10-2040635857337318034","count":19},{"id":"213076320","lat":51.5077777778,"long":-0.0991666667,"name":"Tate Modern","most_recent":"2020-06-24-2338834865358764356","count":16},{"id":"349449666","lat":52.0333,"long":-2.95,"name":"Peterchurch","most_recent":"2019-05-13-2042704864122890528","count":16},{"id":"327142124","lat":57.6145307553,"long":-4.6874435715,"name":"Garve, Highland, United Kingdom","most_recent":"2018-12-28-1944474400363596371","count":15},{"id":"120837368316504","lat":57.528894,"long":-4.378889,"name":"Kilcoy Castle","most_recent":"2017-12-29-1680667219972842009","count":14},{"id":"213385402","lat":51.5071148636,"long":-0.1273180524,"name":"London, United Kingdom","most_recent":"2017-05-02-1505671097423528899","count":13},{"id":"229037766","lat":51.4746666667,"long":-0.2954666667,"name":"Royal Botanic Gardens, Kew","most_recent":"2016-12-03-1397202657902766916","count":13},{"id":"1030685075","lat":57.16563,"long":-2.10542,"name":"The Sir Duncan Rice Library","most_recent":"2017-02-07-1445264526542343090","count":12},{"id":"1184923968272679","lat":52.0542717879,"long":-2.7162194252,"name":"Hereford Cathedral","most_recent":"2019-08-18-2113302733883888827","count":12},{"id":"145965878","lat":37.0884,"long":-8.251,"name":"Albufeira","most_recent":"2018-06-01-1792266926967528558","count":12},{"id":"19850271","lat":57.1703125907,"long":-2.0965514045,"name":"Don Street","most_recent":"2015-10-19-1099514913545217614","count":12},{"id":"20266","lat":51.5046767904,"long":-0.1135885123,"name":"BFI IMAX","most_recent":"2018-11-28-1922909816439836582","count":11},{"id":"23320","lat":51.5197135427,"long":-0.0937249758,"name":"Barbican Centre","most_recent":"2020-08-21-2380777794251779236","count":10},{"id":"242489432","lat":57.65,"long":-3.6,"name":"Findhorn","most_recent":"2018-12-23-1940792097560857656","count":10},{"id":"280000444","lat":57.6791194444,"long":-4.5792194444,"name":"Ben Wyvis","most_recent":"2016-05-30-1261678938042361093","count":10},{"id":"502239540","lat":51.5031,"long":-0.1132,"name":"London Waterloo station","most_recent":"2021-04-22-2557754954444940667","count":10},{"id":"5910878","lat":57.5923982523,"long":-4.1130344003,"name":"Rosemarkie Beach","most_recent":"2016-06-22-1278351649678256038","count":10},{"id":"242193994","lat":50.0833,"long":14.4333,"name":"National Gallery in Prague","most_recent":"2016-06-07-1267397416606984153","count":9},{"id":"25619","lat":51.5059584676,"long":-0.1174122265,"name":"South Bank London","most_recent":"2019-10-22-2160593932289895880","count":9},{"id":"293048364","lat":56.85,"long":-2.26667,"name":"Inverbervie, Aberdeenshire, United Kingdom","most_recent":"2014-11-16-854637978224125514","count":9},{"id":"605315801","lat":43.4167,"long":-5.46667,"name":"Pandenes","most_recent":"2017-04-03-1484677290678939226","count":9},{"id":"213812322","lat":50.10145888,"long":14.4325913281,"name":"Veletržní palác - Národní galerie","most_recent":"2016-06-07-1267396683736246193","count":8},{"id":"220567145","lat":51.559,"long":-0.1425,"name":"Dartmouth Park","most_recent":"2021-07-03-2609804011480441114","count":8},{"id":"244597203","lat":57.8986111111,"long":-5.1602777778,"name":"Ullapool","most_recent":"2018-10-15-1890896505360026753","count":8},{"id":"490559189","lat":57.599015,"long":-3.837937,"name":"Nairn Beach","most_recent":"2016-03-06-1200219567832130819","count":8},{"id":"840955354","lat":57.1639646079,"long":-2.1008777618,"name":"University of Aberdeen","most_recent":"2015-10-19-1099399787055900119","count":8},{"id":"104028229","lat":57.5302580332,"long":-4.4134503112,"name":"Big Sky Lodges","most_recent":"2016-06-29-1283525960968453685","count":7},{"id":"135178416515306","lat":57.513463,"long":-4.3657329,"name":"Redcastle","most_recent":"2021-07-18-2620659129650144261","count":7},{"id":"150639","lat":47.49697,"long":19.06328,"name":"Szimpla Kert","most_recent":"2017-11-07-1642672260334236421","count":7},{"id":"229815996","lat":57.4166666667,"long":-3.25,"name":"Moray","most_recent":"2016-12-20-1409527479521505918","count":7},{"id":"246236828","lat":51.5219444444,"long":-0.0716666667,"name":"Brick Lane","most_recent":"2019-11-17-2179313392672689458","count":7},{"id":"253793674","lat":43.3582216,"long":-5.5056766,"name":"Nava, Asturias","most_recent":"2017-05-05-1507883700283693183","count":7},{"id":"501937601","lat":53.9,"long":-9.25,"name":"County Mayo","most_recent":"2017-06-12-1535686653019069984","count":7},{"id":"1227829","lat":51.5020836337,"long":-0.1196760468,"name":"SEA LIFE London Aquarium™","most_recent":"2014-09-02-800502937395357473","count":6},{"id":"1565480680173369","lat":57.55684,"long":-4.53887,"name":"River Conon","most_recent":"2015-05-18-987518256360941095","count":6},{"id":"213234067","lat":51.5072739452,"long":-0.1146797492,"name":"National Theatre","most_recent":"2018-09-26-1877218821933336897","count":6},{"id":"216718485","lat":51.508389017,"long":-0.1084899804,"name":"Oxo Tower Wharf","most_recent":"2018-09-01-1858857773098585041","count":6},{"id":"225535560","lat":37.0167,"long":-7.93333,"name":"Faro, Portugal","most_recent":"2018-06-02-1793103399556165360","count":6},{"id":"254970202","lat":57.6667,"long":-4.03333,"name":"Cromarty, Highland, United Kingdom","most_recent":"2020-12-28-2474037431585481313","count":6},{"id":"1019807437","lat":51.9972383436,"long":-0.7408164861,"name":"Bletchley Park","most_recent":"2017-09-01-1594429076244620344","count":5},{"id":"112658625418987","lat":57.8167,"long":-5.05,"name":"Inverlael, Highland, United Kingdom","most_recent":"2018-10-16-1891257932998348938","count":5},{"id":"165028350833639","lat":51.50534,"long":-0.11363,"name":"Waterloo Bridge","most_recent":"2018-07-31-1835839200465886155","count":5},{"id":"207409165","lat":50.0833,"long":14.4167,"name":"Prague, Czech Republic","most_recent":"2016-06-06-1266913600603907312","count":5},{"id":"213127970","lat":51.5166,"long":-0.1652,"name":"Edgware Road","most_recent":"2018-09-14-1868040756464474745","count":5},{"id":"215158835","lat":51.5346305556,"long":-0.0766305556,"name":"Haggerston","most_recent":"2021-01-17-2488547456756618067","count":5},{"id":"219234043","lat":51.4561111111,"long":-0.3416666667,"name":"Twickenham Stadium","most_recent":"2017-08-25-1589381307891384642","count":5},{"id":"229761647","lat":51.5197624654,"long":-0.0807183981,"name":"Broadgate London","most_recent":"2019-08-12-2109041395124889632","count":5},{"id":"3001373","lat":40.7577936024,"long":-73.985911854,"name":"Times Square, New York City","most_recent":"2018-10-23-1896470291215874651","count":5},{"id":"32771","lat":51.5166,"long":-0.075,"name":"Spitalfields","most_recent":"2019-04-29-2032692808380350064","count":5},{"id":"358140325","lat":51.541,"long":-0.1433,"name":"Camden Town","most_recent":"2020-07-19-2356650898144376574","count":5},{"id":"3615984","lat":54.2117184391,"long":-9.0991955996,"name":"Enniscrone Beach","most_recent":"2019-09-06-2127233912043301429","count":5},{"id":"41873413","lat":51.5024308714,"long":-0.1129349087,"name":"London Waterloo Station","most_recent":"2018-05-24-1786594036628772455","count":5},{"id":"434673456635993","lat":57.5228080802,"long":-4.5297663047,"name":"Faebait","most_recent":"2017-12-24-1677004778743223765","count":5},{"id":"480015297","lat":50.21,"long":-5.48,"name":"St Ives, Cornwall","most_recent":"2021-08-28-2650089344953714978","count":5},{"id":"504890233","lat":51.5080555556,"long":-0.0877777778,"name":"London Bridge","most_recent":"2018-05-14-1779319795290029915","count":5},{"id":"510139435","lat":55.1665269546,"long":-6.8211736973,"name":"Downhill Beach","most_recent":"2017-06-15-1537867701156934679","count":5},{"id":"63134088","lat":48.2083,"long":16.3731,"name":"Vienna, Austria","most_recent":"2016-06-04-1265241191626794187","count":5},{"id":"69447902","lat":47.4988888889,"long":19.0436111111,"name":"Chain Bridge","most_recent":"2017-11-01-1638607211068179513","count":5},{"id":"708870729","lat":57.6261083112,"long":-4.6888170797,"name":"Little Garve","most_recent":"2016-10-30-1372456232367237993","count":5},{"id":"847245894","lat":57.1717,"long":-2.1025,"name":"Seaton Park","most_recent":"2016-03-14-1205895769045558384","count":5},{"id":"876870597","lat":37.0747,"long":-8.2815,"name":"Praia de São Rafael","most_recent":"2018-06-01-1792015860460048725","count":5},{"id":"1021225954","lat":51.5166664124,"long":-0.12555556,"name":"Coptic Street","most_recent":"2015-07-03-1021243776319580108","count":4},{"id":"1027356932","lat":47.25,"long":12.75,"name":"Sigmund-Thun Klamm","most_recent":"2019-06-09-2062572998115767830","count":4},{"id":"212916915","lat":51.557,"long":-0.134,"name":"Tufnell Park","most_recent":"2021-05-11-2571505235586429464","count":4},{"id":"213267431","lat":51.45,"long":-2.58333,"name":"Bristol, United Kingdom","most_recent":"2018-08-13-1844903075161102489","count":4},{"id":"213283341","lat":51.5316010482,"long":-0.1238284198,"name":"London King's Cross Station","most_recent":"2018-11-19-1916317746671210215","count":4},{"id":"213429964","lat":55.9546,"long":-3.2087,"name":"Edinburgh, United Kingdom","most_recent":"2021-07-07-2612413005093013585","count":4},{"id":"213682738","lat":48.208333,"long":16.372778,"name":"St. Stephen's Cathedral, Vienna","most_recent":"2016-06-04-1265238690714313827","count":4},{"id":"2151107398296530","lat":57.7143481,"long":-4.8514241,"name":"Loch Glascarnoch","most_recent":"2018-10-16-1891362516492231961","count":4},{"id":"218109131","lat":35.718889,"long":139.775833,"name":"Tokyo National Museum","most_recent":"2019-09-14-2132791591016859862","count":4},{"id":"218502167","lat":51.5072,"long":-0.1157,"name":"BFI Southbank","most_recent":"2018-10-09-1886586589405026179","count":4},{"id":"220626031","lat":57.4793645663,"long":-4.2495756179,"name":"Caledonian Canal","most_recent":"2015-05-29-995749325052798269","count":4},{"id":"221447018442743","lat":40.7593504119,"long":-73.9803604087,"name":"Top of the Rock","most_recent":"2018-10-22-1896097746751004001","count":4},{"id":"228677946","lat":51.4671,"long":-0.242,"name":"Barnes railway station","most_recent":"2019-05-28-2053901490266915728","count":4},{"id":"229733878","lat":57.2004522165,"long":-2.2037424255,"name":"Aberdeen Airport","most_recent":"2017-09-19-1607424192420986371","count":4},{"id":"231349570","lat":51.5083,"long":-0.103056,"name":"Blackfriars Bridge railway station","most_recent":"2018-03-29-1745533475120729524","count":4},{"id":"236392471","lat":55.64555556,"long":12.54805556,"name":"Sluseholmen","most_recent":"2018-05-04-1772057815479011781","count":4},{"id":"238891653","lat":57.7194444444,"long":-7.1863888889,"name":"Berneray","most_recent":"2017-08-08-1577134317270878345","count":4},{"id":"249901377","lat":57.5915965219,"long":-3.8578366336,"name":"East Beach, Nairn","most_recent":"2017-12-26-1678373830078139742","count":4},{"id":"277853327","lat":51.469,"long":-0.236,"name":"Putney Lower Common","most_recent":"2018-07-17-1825648172723231599","count":4},{"id":"288097199","lat":57.5333,"long":-4.26667,"name":"Knockbain, Highland, United Kingdom","most_recent":"2015-09-20-1078186201541469231","count":4},{"id":"2999512","lat":40.7614986541,"long":-73.9771902907,"name":"MoMA The Museum of Modern Art","most_recent":"2018-10-20-1894507634480987852","count":4},{"id":"321360238419192","lat":34.6603,"long":135.5122,"name":"Umeda Sky Tower Osaka Japan","most_recent":"2019-09-19-2136295598343616701","count":4},{"id":"449456623","lat":41.139863,"long":-8.609336,"name":"Dom Luís I Bridge","most_recent":"2018-10-06-1884149562734554600","count":4},{"id":"522328","lat":50.0908333333,"long":14.4008333333,"name":"St. Vitus Cathedral","most_recent":"2016-06-05-1266164613831681037","count":4},{"id":"53680","lat":51.5191666667,"long":-0.0938888889,"name":"Barbican Estate","most_recent":"2018-08-03-1838096784795119009","count":4},{"id":"545059359","lat":47.5005637527,"long":19.0828068173,"name":"Indó Kávézó - Keleti pályaudvar","most_recent":"2017-10-25-1633509479311850739","count":4},{"id":"547953099","lat":46.254167,"long":13.503611,"name":"Potoki, Kobarid","most_recent":"2019-06-13-2065250520456748936","count":4},{"id":"55219852","lat":57.1526,"long":-2.11,"name":"Aberdeen","most_recent":"2016-04-30-1239694360624981612","count":4},{"id":"640673344","lat":51.5716,"long":-0.1448,"name":"Highgate","most_recent":"2014-08-27-796105250512267242","count":4},{"id":"74913354","lat":51.5070730342,"long":-0.1632499695,"name":"Hyde Park","most_recent":"2017-08-28-1591526771973499316","count":4},{"id":"80388","lat":51.51788,"long":-0.12723,"name":"British Museum","most_recent":"2015-08-16-1052836905346622692","count":4},{"id":"839985965","lat":57.5335658179,"long":-3.6612796783,"name":"Logie Steading","most_recent":"2017-12-20-1674218415455036073","count":4},{"id":"857906084","lat":58.636490070834,"long":-3.2301534783333,"name":"Mey, Highland, United Kingdom","most_recent":"2020-01-01-2211690854425540979","count":4},{"id":"028083d1f1acecd698e5f88f30d5b950e2e5445c81e8150290876ec506f11bc5","lat":57.51943,"long":-4.55865,"name":"Auchederson","most_recent":"2015-06-01-998012183719405039","count":3},{"id":"1008393659220745","lat":57.3222830389,"long":-2.3459346495,"name":"The Barn at Barra Castle","most_recent":"2017-09-18-1606697392325629482","count":3},{"id":"1084346","lat":57.5902324411,"long":-3.8620342045,"name":"Nairn Harbour","most_recent":"2015-12-29-1150744922079061398","count":3},{"id":"110531","lat":51.5207,"long":-0.1345,"name":"Tottenham Court Road","most_recent":"2019-08-09-2106888291243656458","count":3},{"id":"1241986","lat":51.5056538251,"long":-0.0905089167,"name":"Borough Market","most_recent":"2018-07-27-1833001278033357183","count":3},{"id":"12700129","lat":57.1650348124,"long":-2.1047116909,"name":"Meston","most_recent":"2015-04-25-971047314713699750","count":3},{"id":"1551373","lat":57.1623596358,"long":-2.0933466863,"name":"Aberdeen Sports Village","most_recent":"2016-03-31-1218158487383270410","count":3},{"id":"1551967","lat":57.49916667,"long":-4.22944444,"name":"Kessock Bridge","most_recent":"2015-10-10-1092612479128397798","count":3},{"id":"175770","lat":38.8882695311,"long":-77.0228844928,"name":"Hirshhorn Museum and Sculpture Garden","most_recent":"2018-10-18-1892928688052371605","count":3},{"id":"179525","lat":50.0885172281,"long":14.4030395965,"name":"Pražský hrad / Prague Castle","most_recent":"2016-06-05-1266169121794122993","count":3},{"id":"1888807458062317","lat":57.1604817,"long":-2.1003005,"name":"Old Aberdeen Bookshop","most_recent":"2013-02-13-390653958166374053","count":3},{"id":"202683503085689","lat":53.2520202116,"long":-6.329975906,"name":"The Dublin Hellfire Club","most_recent":"2018-11-02-1903741691651856668","count":3},{"id":"2086","lat":51.5062776,"long":-0.1000171,"name":"Blue Fin Building","most_recent":"2014-07-31-776560240028771534","count":3},{"id":"213045606","lat":51.513773845,"long":-0.0990053817,"name":"St. Paul's Cathedral","most_recent":"2021-08-12-2638979118949101088","count":3},{"id":"213054664","lat":51.4442470952,"long":-0.2879001741,"name":"Richmond Park","most_recent":"2018-08-20-1850205951542567935","count":3},{"id":"213094275","lat":59.35,"long":18.0667,"name":"Stockholm, Sweden","most_recent":"2013-05-05-449039570044675196","count":3},{"id":"213103343","lat":51.4716849362,"long":-0.4571602914,"name":"Heathrow Airport","most_recent":"2017-09-14-1603822592347566568","count":3},{"id":"213127436","lat":51.5180218294,"long":-0.0815800903,"name":"London Liverpool Street Station","most_recent":"2017-06-14-1537165037284851305","count":3},{"id":"213205633","lat":47.4719,"long":19.0503,"name":"Budapest, Hungary","most_recent":"2017-10-26-1634219856576244112","count":3},{"id":"214564532","lat":57.194,"long":-3.823,"name":"Aviemore","most_recent":"2018-02-09-1710815044236624655","count":3},{"id":"215178522","lat":37.0202276444,"long":-7.9679406019,"name":"Aeroporto de Faro","most_recent":"2018-06-02-1793107055873370876","count":3},{"id":"215217471","lat":51.4633,"long":-0.1204,"name":"Stockwell","most_recent":"2017-04-24-1499888505885793196","count":3},{"id":"216073353","lat":51.5061111111,"long":-0.12,"name":"Hungerford Bridge and Golden Jubilee Bridges","most_recent":"2019-03-23-2006204778740227184","count":3},{"id":"217186997","lat":51.557,"long":-0.1173,"name":"Holloway, London","most_recent":"2019-11-29-2187729139639846372","count":3},{"id":"218735284","lat":37.1333,"long":-8.03333,"name":"Loulé","most_recent":"2018-06-01-1792158019733601045","count":3},{"id":"219067553","lat":51.5132,"long":-0.0777,"name":"Aldgate","most_recent":"2019-10-27-2164000647383383183","count":3},{"id":"221018793","lat":51.5175,"long":-0.0886111111,"name":"Moorgate","most_recent":"2018-08-08-1841206881167722926","count":3},{"id":"222638379","lat":57.4667,"long":-4.23333,"name":"Inverness","most_recent":"2018-02-14-1714839761025050680","count":3},{"id":"225481160","lat":51.5044676116,"long":-0.0865976498,"name":"The Shard London","most_recent":"2018-05-14-1779318518711747710","count":3},{"id":"227411680","lat":51.51503778563,"long":-0.067313512805806,"name":"Aldgate East, London","most_recent":"2019-10-27-2164217366861489590","count":3},{"id":"228004070","lat":54.45,"long":-3.01667,"name":"Grasmere","most_recent":"2018-10-01-1880411629703764261","count":3},{"id":"228760114","lat":50.9833,"long":-0.1,"name":"Haywards Heath","most_recent":"2014-07-06-758670288825836797","count":3},{"id":"229744708","lat":57.1495,"long":-2.0964,"name":"Marischal College","most_recent":"2013-02-18-393990959741495096","count":3},{"id":"234691670268487","lat":51.467152,"long":-0.241916,"name":"Barnes","most_recent":"2018-02-07-1709642054316763218","count":3},{"id":"235583037","lat":43.5636111111,"long":-6.0347222222,"name":"Asturias Airport","most_recent":"2017-04-05-1486118184837901599","count":3},{"id":"2410312","lat":52.0505832386,"long":-2.714924562,"name":"Bishops Meadow","most_recent":"2018-06-16-1803269988792272180","count":3},{"id":"243298","lat":51.5176712,"long":-0.0961733,"name":"Museum of London","most_recent":"2014-09-02-800493515923220116","count":3},{"id":"24960421","lat":41.15,"long":-8.61667,"name":"Porto, Portugal","most_recent":"2018-10-05-1883383343597279892","count":3},{"id":"2086","lat":35.673284,"long":139.765403,"name":"MUJI Ginza","most_recent":"2014-07-31-776560240028771534","count":3},{"id":"254854231","lat":58.2155555556,"long":-6.3311111111,"name":"Stornoway Airport","most_recent":"2018-02-14-1714798296538311491","count":3},{"id":"254874075","lat":54.114893,"long":-9.154955,"name":"Ballina, Mayo, Ireland","most_recent":"2017-05-31-1526704901059681007","count":3},{"id":"25614600","lat":40.7455369895,"long":-73.9475314317,"name":"MoMA PS1","most_recent":"2018-10-23-1896748748717949535","count":3},{"id":"258993813","lat":54.3361111111,"long":-7.6030555556,"name":"Castle Coole","most_recent":"2017-05-19-1517999119279511237","count":3},{"id":"259734859","lat":57.5815,"long":-4.13237,"name":"Fortrose","most_recent":"2016-12-27-1414487832302956650","count":3},{"id":"261177520","lat":57.1635458436,"long":-2.1039129516,"name":"Crombie Halls - Aberdeen","most_recent":"2013-03-03-403568600890959565","count":3},{"id":"261618427","lat":57.34095311,"long":-4.76281309,"name":"Plodda Falls","most_recent":"2018-10-13-1889257430924317467","count":3},{"id":"265016680","lat":57.1497,"long":-2.1176,"name":"Rosemount, Aberdeen","most_recent":"2015-03-31-952712450843305283","count":3},{"id":"271126143","lat":51.5667,"long":-0.133333,"name":"Upper Holloway, Redbridge, United Kingdom","most_recent":"2020-05-09-2305177418895413564","count":3},{"id":"274026130","lat":57.3333,"long":-3.98333,"name":"Tomatin, Highland, United Kingdom","most_recent":"2019-06-19-2069571444966218618","count":3},{"id":"281517673","lat":55.9472222222,"long":-3.1897222222,"name":"National Museum of Scotland","most_recent":"2017-02-20-1454255653911709635","count":3},{"id":"31009605","lat":41.8911908243,"long":12.4917778714,"name":"Colosseo","most_recent":"2018-02-20-1719199896103065910","count":3},{"id":"311129777","lat":41.4137030772,"long":2.1534547106,"name":"Park Güell","most_recent":"2019-05-19-2047111391273413584","count":3},{"id":"326010771153192","lat":51.5207514437,"long":-0.1996849648,"name":"London Paddington","most_recent":"2018-08-12-1844477771762466348","count":3},{"id":"342604967","lat":51.5119876453,"long":-0.1226949692,"name":"Covent Garden London","most_recent":"2015-08-24-1058895808329115520","count":3},{"id":"346033493","lat":51.5217863592,"long":-0.079918965,"name":"Worship Street London","most_recent":"2018-01-25-1700330152178868775","count":3},{"id":"350452047","lat":52.0614,"long":-2.7083,"name":"Hereford railway station","most_recent":"2021-07-28-2627903704223624082","count":3},{"id":"359077554","lat":36.75,"long":139.617,"name":"Nikko, Tochigi","most_recent":"2019-09-16-2133938941861051159","count":3},{"id":"360575353","lat":57.2584,"long":-7.29491,"name":"Beinn Mhòr (South Uist)","most_recent":"2017-08-07-1576312272450629228","count":3},{"id":"362229515","lat":58.1897,"long":-7.06667,"name":"Uig, Lewis","most_recent":"2018-02-11-1712541654501428255","count":3},{"id":"364698980","lat":36.759166666667,"long":139.59861111111,"name":"Nikkō Tōshō-gū","most_recent":"2019-09-16-2133847487243582538","count":3},{"id":"376201326165095","lat":35.65,"long":139.733,"name":"The National Art Center, Roppongi","most_recent":"2019-09-17-2134633463339304480","count":3},{"id":"3828454","lat":54.322712996649,"long":-9.3457939544027,"name":"Downpatrick Head","most_recent":"2019-09-08-2128583287923515501","count":3},{"id":"403405366909084","lat":57.5165113732,"long":-4.3949296394,"name":"Garguston, Highland","most_recent":"2021-07-17-2619871418513104938","count":3},{"id":"4070741","lat":57.5,"long":-4.25,"name":"North Kessock","most_recent":"2016-06-01-1263127552925066281","count":3},{"id":"429467379","lat":56.56146455,"long":-3.5839859167,"name":"Perthshire","most_recent":"2015-09-12-1072577714371389264","count":3},{"id":"446390054","lat":50.08917,"long":14.39556,"name":"Prague Castle","most_recent":"2016-06-05-1266165688160707640","count":3},{"id":"4908370","lat":57.1654037365,"long":-2.1053734982,"name":"Aberdeen University Library","most_recent":"2013-02-08-386862336936994308","count":3},{"id":"493393547525616","lat":57.5155,"long":-4.38712,"name":"Garguston","most_recent":"2017-11-09-1644272960319382925","count":3},{"id":"494567913","lat":57.2921,"long":-3.87987,"name":"A9 road (Scotland)","most_recent":"2015-01-12-896252105669175208","count":3},{"id":"51492242","lat":51.1575566947,"long":-0.1686378227,"name":"Gatwick Airport","most_recent":"2018-06-02-1793157462297436350","count":3},{"id":"51772","lat":34.705201069342,"long":135.49044897567,"name":"梅田スカイビル（Umeda Sky Building)","most_recent":"2019-09-19-2136336413677896996","count":3},{"id":"53922","lat":51.5198345,"long":-0.074639,"name":"Old Spitalfields Market","most_recent":"2016-09-19-1342991638657963407","count":3},{"id":"687689224","lat":51.5190916667,"long":-0.0741805556,"name":"Christ Church, Spitalfields","most_recent":"2018-01-16-1693569656777670091","count":3},{"id":"70422","lat":57.1454143094,"long":-2.1050148633,"name":"Music Hall Aberdeen","most_recent":"2015-11-24-1124954356162717580","count":3},{"id":"729719264","lat":57.2644957833,"long":-4.5600359866,"name":"Meall Fuar-mhonaidh","most_recent":"2018-10-16-1891498020646718276","count":3},{"id":"825708719","lat":47.515856528,"long":19.0800285636,"name":"Városliget","most_recent":"2017-10-24-1632799539630807798","count":3},{"id":"831360764","lat":57.0981681359,"long":-2.2420155927,"name":"Camphill, Aberdeen City, United Kingdom","most_recent":"2014-05-31-732736120988329958","count":3},{"id":"863555074","lat":54.4416666667,"long":-3.2916666667,"name":"Wast Water","most_recent":"2018-10-03-1881610382037027062","count":3},{"id":"864738","lat":57.5693,"long":-4.03775,"name":"Ardersier","most_recent":"2020-08-03-2367540234025015955","count":3},{"id":"941663567","lat":57.8005,"long":-5.05775,"name":"Auchindrean","most_recent":"2018-10-15-1890533478030838027","count":3},{"id":"953419235","lat":54.4850611111,"long":-2.9677694444,"name":"Dove Crag","most_recent":"2021-11-16-2708332666447916694","count":3},{"id":"992403011","lat":57.0755555556,"long":-7.2913888889,"name":"Eriskay","most_recent":"2016-07-16-1295702258742640585","count":3},{"id":"99aaa1db07d8331c5c99b4268ae0cf6ac2da30f7d7d556bfce33d71ead9dc678","lat":57.5150186,"long":-4.6689822,"name":"Orrin Dam","most_recent":"2013-02-17-393315548107859011","count":3},{"id":"1013964087","lat":51.4767,"long":-0.175556,"name":"St Mary's Church, Battersea","most_recent":"2018-04-23-1764142431623084924","count":2},{"id":"1014397306","lat":41.1424494185,"long":-8.6026394789,"name":"Passeio das Fontainhas","most_recent":"2018-10-04-1882571385398640683","count":2},{"id":"1014975952","lat":57.54119357,"long":-4.52010521,"name":"River Connon","most_recent":"2015-12-17-1142279411817211070","count":2},{"id":"1016286366","lat":57.5552516157,"long":-3.9896788198,"name":"Gollanfield","most_recent":"2017-01-01-1418295189940127678","count":2},{"id":"1020946646","lat":51.5216212,"long":-0.0777107,"name":"1 Blossom Street","most_recent":"2017-12-13-1669200197963307502","count":2},{"id":"102522597","lat":35.694,"long":139.7538,"name":"Chiyoda City","most_recent":"2019-09-15-2133147325533668361","count":2},{"id":"10300726","lat":55.67272,"long":12.55303,"name":"Madklubben Vesterbro","most_recent":"2018-05-01-1769919504354400665","count":2},{"id":"108809380848606","lat":52.2052835511,"long":0.1179478834,"name":"Cambridge","most_recent":"2021-06-13-2595218967306767113","count":2},{"id":"118314","lat":55.6735354483,"long":12.567570631,"name":"Tivoli","most_recent":"2018-05-03-1771385365811659043","count":2},{"id":"1215873","lat":51.5211717,"long":-0.0781157,"name":"The Water Poet","most_recent":"2017-11-30-1659338520625646872","count":2},{"id":"1324172530932662","lat":51.4411581,"long":-0.1868776,"name":"London Glass Works","most_recent":"2018-07-27-1832918523056403715","count":2},{"id":"1517661008543617","lat":43.1718,"long":-5.6997,"name":"Valdediós","most_recent":"2017-04-04-1485348526522171024","count":2},{"id":"155415151510909","lat":52.05726,"long":-2.9939,"name":"Snodhill","most_recent":"2018-06-17-1803960225579178828","count":2},{"id":"160729587935888","lat":35.626534528885,"long":139.78285204513,"name":"teamLab Borderless / チームラボボーダレス","most_recent":"2019-09-13-2132083585220451527","count":2},{"id":"1615833","lat":53.397897673828,"long":-2.9732792765779,"name":"Liverpool Cathedral","most_recent":"2020-03-14-2264808212584817169","count":2},{"id":"168396343","lat":55.859929974358,"long":-4.2853393314141,"name":"The SSE Hydro","most_recent":"2020-03-01-2255573509524747164","count":2},{"id":"1788098194607786","lat":51.5129231,"long":-0.088194,"name":"Bank, London","most_recent":"2018-08-22-1851635241758526208","count":2},{"id":"184600339020607","lat":51.4918878,"long":-0.1949706,"name":"Earls Court","most_recent":"2018-07-17-1825725290773488346","count":2},{"id":"1946452792340866","lat":51.5142737,"long":-0.0989924,"name":"St. Paul's Cathedral","most_recent":"2018-05-23-1785843610446923207","count":2},{"id":"20151669","lat":48.34999,"long":11.78927,"name":"Flughafen München","most_recent":"2019-11-06-2171512159954105393","count":2},{"id":"211528","lat":55.979008656,"long":-3.3000126495,"name":"Cramond Village","most_recent":"2013-06-01-468513805079111073","count":2},{"id":"213030855","lat":59.6501779441,"long":17.9300225309,"name":"Stockholm Arlanda Airport","most_recent":"2013-05-04-448265892528875341","count":2},{"id":"213047365","lat":51.5316788591,"long":-0.126063258,"name":"St Pancras International","most_recent":"2017-09-11-1601620266908096747","count":2},{"id":"213096864","lat":51.510173,"long":-0.098438,"name":"Millennium Bridge, London","most_recent":"2018-04-26-1765643292098663393","count":2},{"id":"213100244","lat":41.3894,"long":2.1683,"name":"Barcelona, Spain","most_recent":"2019-05-19-2047285254250821061","count":2},{"id":"213131048","lat":52.5006,"long":13.3989,"name":"Berlin, Germany","most_recent":"2016-06-09-1268653907334883257","count":2},{"id":"213492192","lat":51.4541,"long":-0.973,"name":"Reading, England","most_recent":"2017-03-10-1467119309762473748","count":2},{"id":"213624484","lat":51.4833,"long":-0.166667,"name":"South Kensington","most_recent":"2018-07-03-1815580288621908735","count":2},{"id":"213647594","lat":51.4824519372,"long":-0.1452684402,"name":"Battersea Power Station","most_recent":"2018-05-09-1775673825453037753","count":2},{"id":"213945745","lat":35.636388888889,"long":139.76361111111,"name":"Rainbow Bridge (Tokyo)","most_recent":"2019-09-16-2134232819302417046","count":2},{"id":"214283600","lat":34.967222,"long":135.772778,"name":"Fushimi Inari-taisha","most_recent":"2019-09-19-2136430741897102705","count":2},{"id":"214434975","lat":41.9110781113,"long":12.4781152193,"name":"Pincio, Roma","most_recent":"2018-02-20-1718757212465018452","count":2},{"id":"215736018","lat":51.4333,"long":-0.216667,"name":"Wimbledon, United Kingdom","most_recent":"2018-11-18-1915661143798407046","count":2},{"id":"215861910","lat":52.6292,"long":1.2977,"name":"Norwich, Norfolk","most_recent":"2021-11-01-2697266074053660270","count":2},{"id":"216140697","lat":51.4903,"long":-0.1193,"name":"Vauxhall","most_recent":"2019-07-30-2099588397835445382","count":2},{"id":"216211456","lat":51.5082,"long":-0.1001,"name":"Bankside","most_recent":"2018-07-19-1826792268745449678","count":2},{"id":"217557034","lat":40.7566666667,"long":-73.9911111111,"name":"Port Authority Bus Terminal","most_recent":"2018-10-21-1894760703735145974","count":2},{"id":"217609912","lat":51.5025022173,"long":-0.0975631207,"name":"Southwark","most_recent":"2019-02-13-1978696937007823767","count":2},{"id":"218043599","lat":43.36,"long":-5.845,"name":"Oviedo, Asturias","most_recent":"2017-03-31-1482464785579791800","count":2},{"id":"220272601","lat":51.526,"long":-0.103475,"name":"Clerkenwell","most_recent":"2020-03-04-2257406681745157162","count":2},{"id":"221665470","lat":51.5209,"long":-0.08649,"name":"Finsbury Square","most_recent":"2019-12-15-2199446964972746695","count":2},{"id":"224632531","lat":47.2304,"long":12.99431,"name":"Rauris","most_recent":"2019-06-09-2062495437490899267","count":2},{"id":"227035953","lat":55.0666666667,"long":-3.6166666667,"name":"Dumfries","most_recent":"2015-01-12-896250674639759244","count":2},{"id":"227567920","lat":51.491,"long":-0.1225,"name":"Albert Embankment","most_recent":"2018-08-01-1836136183445517802","count":2},{"id":"228008156","lat":57.1653748834,"long":-2.1054720798,"name":"Sir Duncan Rice Library","most_recent":"2015-11-26-1126727402364037033","count":2},{"id":"228514641","lat":56.8596388889,"long":-4.2485611111,"name":"Pass of Drumochter","most_recent":"2018-10-12-1888696474976446250","count":2},{"id":"228518892","lat":55.9166666667,"long":-3.2,"name":"Blackford Hill","most_recent":"2018-02-17-1716925072328669371","count":2},{"id":"229595017","lat":51.5119444444,"long":-0.0807777778,"name":"Fenchurch Street","most_recent":"2018-09-18-1870930140649930767","count":2},{"id":"231081749","lat":57.1168432784,"long":-3.9207523551,"name":"Loch Insh Outdoor Centre","most_recent":"2018-02-09-1710787266871073158","count":2},{"id":"231291951","lat":54.4491194444,"long":-3.0733305556,"name":"Great Langdale","most_recent":"2018-10-01-1880695231377087089","count":2},{"id":"231437459","lat":51.495,"long":-0.144167,"name":"London Victoria station","most_recent":"2020-12-13-2463566015204880724","count":2},{"id":"232567009","lat":56.8833,"long":-4.9,"name":"Spean Bridge","most_recent":"2017-07-03-1550946020320371942","count":2},{"id":"234396875","lat":54.2886,"long":-8.9617,"name":"Easky","most_recent":"2017-05-24-1521609471514722096","count":2},{"id":"234731535","lat":34.98673208446,"long":135.74221327408,"name":"Kyoto Railway Museum","most_recent":"2019-09-20-2136887648889876756","count":2},{"id":"235189099","lat":51.5211,"long":-0.079533,"name":"Broadgate Tower","most_recent":"2017-01-19-1431351641680182840","count":2},{"id":"236467102","lat":57.54957,"long":-4.26103,"name":"Munlochy, Highland, United Kingdom","most_recent":"2020-12-24-2471426899644868787","count":2},{"id":"237291567","lat":51.4694593971,"long":-0.1784820275,"name":"The London Helicopter","most_recent":"2018-01-18-1695178457582864573","count":2},{"id":"238320498","lat":57.3028574836,"long":-3.9283407263,"name":"Slochd Summit","most_recent":"2017-06-23-1543494362305118452","count":2},{"id":"241401145","lat":50.0875537,"long":14.4186715,"name":"Old Town Square, Prague, Rep Czech","most_recent":"2016-06-06-1266855914872988681","count":2},{"id":"242741481","lat":41.903907666,"long":12.4570902255,"name":"Vaticano, Roma","most_recent":"2018-02-19-1718412370664825755","count":2},{"id":"242813649","lat":51.5321,"long":-0.1066,"name":"Angel, London","most_recent":"2019-07-25-2095664942844791524","count":2},{"id":"243097873","lat":40.6496,"long":14.62866,"name":"Minori, Italy","most_recent":"2019-06-15-2066914563902899034","count":2},{"id":"247164306","lat":34.710424195066,"long":135.51164037522,"name":"The Osaka Museum of Housing and Living 大阪今昔生活館","most_recent":"2019-09-18-2135728204323854173","count":2},{"id":"249402835","lat":54.4431535348,"long":-2.9965263605,"name":"Rydal Caves","most_recent":"2021-11-17-2708818510488576949","count":2},{"id":"250123382","lat":57.5596100092,"long":-4.5169204473,"name":"Moy Rock","most_recent":"2017-12-21-1674870101815269029","count":2},{"id":"251349954","lat":57.1436,"long":-2.0985,"name":"Aberdeen railway station","most_recent":"2013-02-14-391289011376448715","count":2},{"id":"254088846","lat":57.282,"long":-3.816,"name":"Carrbridge","most_recent":"2018-06-20-1805717101874655672","count":2},{"id":"255084618","lat":57.6956,"long":-4.3375,"name":"Fyrish Monument","most_recent":"2018-12-27-1943757770440443689","count":2},{"id":"26056","lat":51.5021944152,"long":-0.1159566849,"name":"Leake Street Tunnel","most_recent":"2019-02-28-1989555603803872427","count":2},{"id":"261004029","lat":45.5,"long":-4.3333333333,"name":"Bay of Biscay","most_recent":"2017-03-21-1475250489988975258","count":2},{"id":"264812050","lat":51.5262,"long":-0.1178,"name":"St Pancras, London","most_recent":"2017-09-12-1602345963146249047","count":2},{"id":"266559201","lat":57.4667,"long":-4.46667,"name":"Beauly","most_recent":"2018-01-03-1684302554254386278","count":2},{"id":"273651248","lat":56.5172,"long":-4.315784,"name":"Tarmachan Ridge","most_recent":"2020-08-13-2375109785789006878","count":2},{"id":"273681904","lat":51.5075,"long":-0.103,"name":"Sampson House","most_recent":"2018-11-15-1913042994974601083","count":2},{"id":"279282566","lat":52.9572,"long":0.7422694444,"name":"Burnham Overy","most_recent":"2021-10-31-2696815417739864620","count":2},{"id":"280015986","lat":58.19756,"long":-6.74513,"name":"Callanish Stones","most_recent":"2018-02-14-1714693902115324841","count":2},{"id":"301105112","lat":51.5234,"long":-0.0768,"name":"Shoreditch High Street railway station","most_recent":"2018-01-10-1689384479432174467","count":2},{"id":"306600748","lat":51.0258416667,"long":-2.7605555556,"name":"Long Sutton, Somerset","most_recent":"2014-06-17-744768893471123306","count":2},{"id":"308012788","lat":54.3452777778,"long":-6.7186111111,"name":"Navan Fort","most_recent":"2017-05-15-1515437527710935527","count":2},{"id":"312687372398414","lat":51.56496,"long":-0.14647,"name":"Highgate Cemetery","most_recent":"2018-07-08-1819241500870030645","count":2},{"id":"314723118570712","lat":55.9225635758,"long":-3.256675772,"name":"Colinton Dells","most_recent":"2021-07-07-2612412529895248498","count":2},{"id":"317069","lat":53.404596846763,"long":-2.9687015753427,"name":"Liverpool Metropolitan Cathedral","most_recent":"2020-03-14-2264991782800502841","count":2},{"id":"330006","lat":55.95005,"long":-3.2029944444,"name":"Princes Street Gardens","most_recent":"2016-10-02-1352356906332891074","count":2},{"id":"339321303","lat":52.715945895,"long":0.5137136289,"name":"East Winch, Norfolk, United Kingdom","most_recent":"2021-11-01-2697376658161357319","count":2},{"id":"358492","lat":34.6688492,"long":135.5029942,"name":"くれおーる 道頓堀店","most_recent":"2019-09-18-2135278668585511011","count":2},{"id":"361340221","lat":46.420855,"long":13.565283,"name":"Lago del Predil","most_recent":"2019-06-12-2064467816723202390","count":2},{"id":"364120368","lat":58.1846908606,"long":-7.0243948443,"name":"Uig Sands","most_recent":"2018-02-12-1713305089619223876","count":2},{"id":"378761716","lat":41.8833,"long":-7.16667,"name":"Vilar Seco Da Lomba, Braganca, Portugal","most_recent":"2018-05-26-1787961504764965015","count":2},{"id":"383837643","lat":57.52375,"long":-4.27051,"name":"Caravan Hire at Coulmore Bay","most_recent":"2016-06-01-1263128347695342663","count":2},{"id":"389310418","lat":54.7236101587,"long":-3.1678405005,"name":"Uldale, Cumbria, United Kingdom","most_recent":"2014-12-27-884835217437320631","count":2},{"id":"429008518","lat":37.01333333,"long":-7.93472222,"name":"Cathedral of Faro","most_recent":"2018-06-02-1793093152988955953","count":2},{"id":"430448549","lat":51.468278,"long":-0.20875,"name":"Putney Bridge tube station","most_recent":"2017-12-17-1672057962423428810","count":2},{"id":"450453728486459","lat":51.5137703962,"long":-0.0881588459,"name":"Bank of England","most_recent":"2017-12-07-1664189806363331468","count":2},{"id":"462595280","lat":55.23375,"long":-6.51781,"name":"The Giant's Causeway","most_recent":"2017-06-17-1539345269296426693","count":2},{"id":"467849","lat":41.9070463133,"long":12.4540980477,"name":"Vatican Museums - Musei Vaticani","most_recent":"2018-02-19-1718330847496266068","count":2},{"id":"469215155","lat":55.95083333,"long":-3.18055556,"name":"Holyrood, Edinburgh","most_recent":"2018-12-31-1946349212518316502","count":2},{"id":"471660573","lat":51.5186,"long":-0.0813,"name":"Liverpool Street station","most_recent":"2018-07-24-1830852680470464867","count":2},{"id":"484163669","lat":51.526111,"long":-0.087778,"name":"Old Street station","most_recent":"2017-01-18-1430512417670242218","count":2},{"id":"489140692","lat":51.5069388889,"long":-0.1429944444,"name":"Green Park tube station","most_recent":"2021-06-24-2603230417501806098","count":2},{"id":"50251","lat":52.6315439214,"long":1.3005052716,"name":"Norwich Cathedral","most_recent":"2021-11-01-2697331487727995398","count":2},{"id":"507421880","lat":52.5144515968,"long":13.3497680519,"name":"Berlin Siegessäule","most_recent":"2016-06-09-1269098526048740404","count":2},{"id":"51054","lat":51.5611111111,"long":-0.1611111111,"name":"Hampstead Heath","most_recent":"2021-03-13-2528788781632067088","count":2},{"id":"5173912","lat":51.4658333333,"long":-0.2097222222,"name":"Fulham Railway Bridge","most_recent":"2018-05-20-1783356836369681093","count":2},{"id":"520012","lat":51.5260593,"long":-0.1338117,"name":"Wellcome Collection","most_recent":"2017-11-22-1653542084472146457","count":2},{"id":"560153","lat":51.4822222222,"long":-0.1666666667,"name":"Albert Bridge, London","most_recent":"2018-02-03-1706718840888448882","count":2},{"id":"56632614","lat":34.687222222222,"long":135.52583333333,"name":"Osaka Castle","most_recent":"2019-09-18-2135391789576835906","count":2},{"id":"5846994","lat":57.5833333333,"long":-3.8666666667,"name":"Nairn","most_recent":"2015-12-29-1150741488177210646","count":2},{"id":"601836468","lat":57.5407,"long":-4.06388,"name":"Inverness Airport","most_recent":"2016-01-14-1162324115606693014","count":2},{"id":"603441059","lat":57.1336052267,"long":-7.3863735333,"name":"Boisdale, South Uist","most_recent":"2016-07-10-1291379906265328081","count":2},{"id":"61205540","lat":51.5282969487,"long":-0.1336752306,"name":"London Euston Station","most_recent":"2018-01-04-1684699816767849145","count":2},{"id":"665097065","lat":57.5461,"long":-4.37745,"name":"Newton of Ferintosh","most_recent":"2015-04-17-965345899257226279","count":2},{"id":"701332868","lat":51.4561111111,"long":-0.3416666667,"name":"Twickenham Stadium","most_recent":"2017-08-21-1586451707368568129","count":2},{"id":"701476518","lat":54.4541666667,"long":-3.2115277778,"name":"Scafell Pike","most_recent":"2018-10-03-1882079355279100942","count":2},{"id":"703934299778460","lat":35.701228688742,"long":139.70166302884,"name":"9H - Nine Hours, Shinjuku, Tokyo","most_recent":"2019-09-14-2132409325430500115","count":2},{"id":"727534195","lat":51.46992782,"long":-0.25328961,"name":"Barnes, Mortlake and Sheen, London","most_recent":"2017-09-24-1610975333515700989","count":2},{"id":"743318200","lat":51.153413698,"long":-0.0391647418,"name":"Clapham Junction","most_recent":"2018-07-11-1821416419309464248","count":2},{"id":"769146895","lat":57.5203886929,"long":-5.6517412257,"name":"Shieldaig, Loch Torridon","most_recent":"2016-06-12-1271083523198642120","count":2},{"id":"790445994390503","lat":40.7202567158,"long":-73.9931062384,"name":"Delancy Street","most_recent":"2018-10-24-1897276853853406887","count":2},{"id":"836744065","lat":57.921389,"long":-6.829444,"name":"Harris","most_recent":"2017-08-14-1581434399042514316","count":2},{"id":"840843","lat":51.5010066624,"long":-0.1773909457,"name":"Royal Albert Hall","most_recent":"2014-07-19-768290504207722258","count":2},{"id":"8528804","lat":57.6935508167,"long":-4.7787042,"name":"Glascarnoch Dam","most_recent":"2017-01-07-1422348114152743575","count":2},{"id":"8562373","lat":51.5033647803,"long":-0.1193473491,"name":"The Official London Eye","most_recent":"2018-04-18-1760458024235096569","count":2},{"id":"886649961493695","lat":47.49532,"long":19.03989,"name":"Buda Castle","most_recent":"2017-10-11-1623419329504604342","count":2},{"id":"888972072","lat":51.514,"long":-0.076,"name":"Aldgate tube station","most_recent":"2019-10-20-2158974173832158887","count":2},{"id":"889462191181800","lat":51.5331966086,"long":-0.1256866418,"name":"Google","most_recent":"2017-05-01-1504976577992088346","count":2},{"id":"910166293","lat":37.0732,"long":-8.29866,"name":"Praia do Castelo","most_recent":"2018-06-01-1792012918566902758","count":2},{"id":"912180636","lat":51.4688,"long":-0.219444,"name":"London Rowing Club","most_recent":"2018-05-25-1787315841190401915","count":2},{"id":"936019846580767","lat":51.500938318,"long":-0.123816382,"name":"Westminster Bridge","most_recent":"2018-11-17-1914729291409637017","count":2},{"id":"937080903","lat":57.3339,"long":-3.9917,"name":"Tomatin","most_recent":"2018-12-15-1934919587703296115","count":2},{"id":"948992","lat":51.5080414,"long":0.02394,"name":"ExCeL London","most_recent":"2018-10-11-1887952548992884171","count":2},{"id":"1000996650019982","lat":41.1503058,"long":-8.6087007,"name":"Porto Old Town","most_recent":"2018-12-03-1926498840423097164","count":1},{"id":"1003768909","lat":35.01521389,"long":135.6776944,"name":"嵐山駅 (京福電気鉄道)","most_recent":"2019-09-19-2136366442738858641","count":1},{"id":"100869127973237","lat":51.5299242,"long":-0.1348343,"name":"London Euston","most_recent":"2019-10-12-2153138032868513147","count":1},{"id":"1011818731","lat":54.423118,"long":-3.317852,"name":"Wastwater Lake, Cumbria","most_recent":"2018-09-30-1879967967350000347","count":1},{"id":"1013969717","lat":47.5002777778,"long":19.0816666667,"name":"Keleti pályaudvar","most_recent":"2017-10-19-1629156727584693882","count":1},{"id":"1014297948","lat":57.42404869,"long":-7.36168568,"name":"Liniclate","most_recent":"2017-07-05-1552421180709804560","count":1},{"id":"1014765958","lat":58.65,"long":-3.15,"name":"Gills Bay","most_recent":"2020-01-02-2212556634880792122","count":1},{"id":"1017845480","lat":51.5102141484,"long":-0.0860372466,"name":"The Monument","most_recent":"2014-08-23-793325062858696579","count":1},{"id":"1018998995","lat":57.2918741659,"long":-3.913322537,"name":"Slochd","most_recent":"2013-04-15-434438469899216280","count":1},{"id":"1020072949","lat":51.4718,"long":-0.223,"name":"Beverley Brook","most_recent":"2017-03-01-1460759095555452946","count":1},{"id":"1020641461","lat":51.5136634,"long":-0.0819659,"name":"Landing Forty Two, the Leadenhall Building","most_recent":"2018-09-17-1870727551966657527","count":1},{"id":"1020777549","lat":47.4986801,"long":19.0320206,"name":"White Dream Home, Castle District Budapest","most_recent":"2017-10-12-1624109190926305648","count":1},{"id":"1022303584","lat":57.5026,"long":-4.25729,"name":"Charlestown, Black Isle","most_recent":"2019-06-21-2071348866170687688","count":1},{"id":"1023812405","lat":54.4667,"long":-3.25,"name":"Wasdale Head","most_recent":"2018-09-30-1879793670857777660","count":1},{"id":"1024355506","lat":51.563821295249,"long":-0.1333940802946,"name":"Upper Holloway, London","most_recent":"2020-01-13-2220662211590801513","count":1},{"id":"1025692110","lat":55.9509,"long":-3.17634,"name":"Arthur's Seat","most_recent":"2017-02-19-1453594339669228120","count":1},{"id":"1026930715","lat":51.5097222222,"long":-0.1044444444,"name":"Blackfriars Bridge","most_recent":"2018-03-19-1738651123994334103","count":1},{"id":"1027345639","lat":52.2667,"long":-0.2,"name":"Offord D'Arcy, Norfolk, United Kingdom","most_recent":"2018-02-17-1716587724936143882","count":1},{"id":"1027506116","lat":52.34696573,"long":21.21429218,"name":"Stare Miasto Warszawa","most_recent":"2019-09-29-2143581761588716107","count":1},{"id":"1028906833","lat":57.6073265,"long":-4.5267963333,"name":"Heights Of Fodderty","most_recent":"2013-05-28-465871763807102701","count":1},{"id":"1029129858","lat":50.2150437242,"long":-5.4821031365,"name":"Tate St Ives","most_recent":"2021-08-27-2649675287761093769","count":1},{"id":"1030180041","lat":57.57026913,"long":-4.17943977,"name":"Rosehaugh!","most_recent":"2018-06-21-1806620869025785633","count":1},{"id":"1030308","lat":53.400833266176,"long":-2.993495464325,"name":"Tate Liverpool","most_recent":"2020-03-14-2264527157969722345","count":1},{"id":"1031326067","lat":55.9549412442,"long":-2.78108844,"name":"East Lothian","most_recent":"2017-02-11-1447693145050730645","count":1},{"id":"1031348580","lat":41.1495769146,"long":-8.6045050621,"name":"La Vie Porto Baixa","most_recent":"2018-12-04-1926786695791792775","count":1},{"id":"1032357174","lat":51.5284503382,"long":-0.1336966579,"name":"Euston railway station","most_recent":"2018-09-29-1879247011170082711","count":1},{"id":"1034734605","lat":50.21444,"long":-5.48466,"name":"Porthmeor Beach","most_recent":"2021-08-27-2649791930673743033","count":1},{"id":"1035170548","lat":52.2499,"long":21.0052,"name":"Warsaw Supreme Court","most_recent":"2019-09-28-2143067810937698967","count":1},{"id":"1052135","lat":34.6545,"long":135.429,"name":"Osaka Aquarium Kaiyukan","most_recent":"2019-09-22-2138364589912485282","count":1},{"id":"10549946","lat":39.95268,"long":-75.14239,"name":"Elfreth\u0026#x27;s Alley Museum","most_recent":"2018-10-19-1893263018943373791","count":1},{"id":"1062847533789079","lat":55.63826,"long":12.57757,"name":"Bella Center Copenhagen","most_recent":"2018-05-01-1769913490720908096","count":1},{"id":"107634825932972","lat":52.1036845296,"long":-2.7451228722,"name":"Herefordshire","most_recent":"2021-10-27-2693720523216666534","count":1},{"id":"108193492535277","lat":51.5170273272,"long":-0.1772818691,"name":"London Paddington station","most_recent":"2021-07-28-2627970059538913806","count":1},{"id":"111804843947469","lat":51.51778,"long":-0.07904,"name":"Catherine Wheel Alley","most_recent":"2021-05-24-2580885613023445117","count":1},{"id":"112607478765830","lat":51.5541,"long":-0.1744,"name":"Hampstead, London","most_recent":"2018-07-08-1819256402208718036","count":1},{"id":"112818396","lat":51.5205345854,"long":-0.0767752101,"name":"Folgate Street","most_recent":"2017-09-27-1613244683933084492","count":1},{"id":"115003632501076","lat":51.5071148636,"long":-0.1273180524,"name":"Oxford Circus","most_recent":"2018-09-12-1867045429050836829","count":1},{"id":"1172141139580393","lat":51.5079411426,"long":-0.1079964638,"name":"South Bank Tower","most_recent":"2018-08-07-1840529683817495445","count":1},{"id":"1176427","lat":35.66032139,"long":139.7291497,"name":"ローソン　六本木ヒルズ店","most_recent":"2019-09-17-2134693764973770203","count":1},{"id":"1191441824276882","lat":38.8968446741,"long":-77.0366048813,"name":"The White House","most_recent":"2018-10-18-1893026639982583084","count":1},{"id":"119156876","lat":51.4751249975,"long":-0.2404109617,"name":"Olympic Cinema","most_recent":"2017-04-25-1500597683077207209","count":1},{"id":"119639804791419","lat":52.052208066098,"long":-2.7185214377106,"name":"Saracens Head","most_recent":"2019-08-18-2113306465463762833","count":1},{"id":"120275865364847","lat":51.5146717606,"long":-0.1494312286,"name":"Bond Street","most_recent":"2018-09-13-1867813718881336831","count":1},{"id":"121200318438108","lat":44.50483,"long":11.34519,"name":"Bologna Centrale","most_recent":"2019-06-14-2066176256608629203","count":1},{"id":"1213590","lat":51.4644791,"long":-0.2166495,"name":"Coat and Badge","most_recent":"2018-06-27-1811273984390707542","count":1},{"id":"123565658359600","lat":41.3830326568,"long":2.1765280728,"name":"Gothic Quarter, Barcelona","most_recent":"2019-05-20-2047837531329212754","count":1},{"id":"125670914","lat":48.140833,"long":11.555,"name":"München Hauptbahnhof","most_recent":"2019-11-10-2174128771840518645","count":1},{"id":"126743431527372","lat":51.44433,"long":-2.63321,"name":"Ashton Court Estate","most_recent":"2018-08-13-1845147805451170925","count":1},{"id":"1268270719908201","lat":51.5336917321,"long":-0.1263881061,"name":"Pancras Square Leisure","most_recent":"2019-04-28-2031835236521848856","count":1},{"id":"128225","lat":51.5179356298,"long":-0.0863866291,"name":"Finsbury Circus","most_recent":"2017-02-16-1451353354793364795","count":1},{"id":"132659900903568","lat":51.5105186595,"long":-0.1300978661,"name":"Leicester Square","most_recent":"2020-09-14-2397905695136618522","count":1},{"id":"1353104","lat":51.4639865996,"long":-0.2164309734,"name":"Waitrose","most_recent":"2017-12-03-1661799924003534339","count":1},{"id":"1374254192665347","lat":58.20647,"long":-6.383,"name":"Stornoway","most_recent":"2017-08-01-1571954120036728048","count":1},{"id":"1396315527060887","lat":41.3945099,"long":2.18037,"name":"Arco de Triunfo Apartment","most_recent":"2019-05-19-2047189154139381232","count":1},{"id":"1400663216648809","lat":51.5127849305,"long":-0.1401905506,"name":"Hamleys Toy Store Regent St London","most_recent":"2019-02-24-1986528040007644983","count":1},{"id":"140981","lat":40.7031502588,"long":-73.995074134,"name":"The Brooklyn Ice Cream Factory","most_recent":"2018-10-21-1895226162234381788","count":1},{"id":"141078743008222","lat":51.5005,"long":-0.129,"name":"Queen Elizabeth II Centre","most_recent":"2017-09-26-1612497444105218572","count":1},{"id":"1416687615107316","lat":47.507,"long":19.04675,"name":"Parliament of Hungary, Budapest","most_recent":"2017-11-04-1640602943816089677","count":1},{"id":"142050949877242","lat":51.5035470083,"long":-0.109359026,"name":"ITV Studios","most_recent":"2018-11-28-1922768188660137177","count":1},{"id":"142919709835152","lat":51.5175124,"long":-0.0804666,"name":"Liverpool Street Station","most_recent":"2018-08-22-1851488605216544133","count":1},{"id":"144958732946378","lat":51.5001524,"long":-0.1262362,"name":"ACE-FX","most_recent":"2018-07-05-1816748063008692705","count":1},{"id":"145218","lat":51.4684153973,"long":-0.2803483975,"name":"Lower Richmond Road","most_recent":"2018-01-17-1694290968290641321","count":1},{"id":"1463801840308653","lat":51.5028201,"long":-0.1192523,"name":"London Eye","most_recent":"2018-07-17-1825316367860150430","count":1},{"id":"1472121582868807","lat":51.5010461282,"long":-0.1232522947,"name":"Big Ben Tower of London","most_recent":"2013-09-17-547120204641691636","count":1},{"id":"147809388","lat":47.500833,"long":19.053889,"name":"St. Stephen's Basilica","most_recent":"2017-09-30-1615460709001156073","count":1},{"id":"1483735278348362","lat":51.461518,"long":-0.202255,"name":"Wandsworth Park Playground","most_recent":"2018-03-13-1734034796205887938","count":1},{"id":"149360805833474","lat":41.90078,"long":12.4834099,"name":"Trevi Fountain","most_recent":"2018-02-19-1718084072718201555","count":1},{"id":"150803998879376","lat":35.7301917,"long":139.7155083,"name":"Uniqlo","most_recent":"2019-09-13-2131804155277458558","count":1},{"id":"15261837","lat":35.7075,"long":139.7749,"name":"Okachimachi Station","most_recent":"2019-09-14-2133057734764014929","count":1},{"id":"1561651337181441","lat":51.52175,"long":-0.12589,"name":"Russell Square","most_recent":"2015-08-24-1058895029321033575","count":1},{"id":"160699901333704","lat":51.514,"long":-0.0821,"name":"Leadenhall Building","most_recent":"2019-12-08-2194398753752979857","count":1},{"id":"161143237235542","lat":51.41365702,"long":-0.2260934367,"name":"Arterberry Road","most_recent":"2017-12-02-1661050465573666277","count":1},{"id":"164601","lat":52.4081830596,"long":-1.5072693212,"name":"Coventry Cathedral","most_recent":"2017-06-19-1540908838130237182","count":1},{"id":"167620290501371","lat":51.524471,"long":-0.074582,"name":"Norton folgate street party","most_recent":"2017-01-20-1432098962751794859","count":1},{"id":"1685694125092102","lat":41.37139955,"long":2.17258497,"name":"Plaça De Carlos Ibañez","most_recent":"2019-05-20-2047924289525855851","count":1},{"id":"169805","lat":51.4033,"long":-0.2321,"name":"Raynes Park","most_recent":"2014-08-16-788337490629715700","count":1},{"id":"1699010910169580","lat":51.5073509,"long":-0.1277583,"name":"Westminster","most_recent":"2016-07-30-1305858567605392797","count":1},{"id":"1704739262934114","lat":51.4658859,"long":-0.2141159,"name":"Putney Pier","most_recent":"2018-04-19-1760811330753084476","count":1},{"id":"170876","lat":40.7193,"long":-73.9928,"name":"Sara Delano Roosevelt Park","most_recent":"2018-10-24-1896978859803413322","count":1},{"id":"1708836929365091","lat":51.5187955223,"long":-0.1100969411,"name":"WeWork Waterhouse Square","most_recent":"2018-05-25-1787098263406986137","count":1},{"id":"1724770041183330","lat":40.75329,"long":-73.88369,"name":"Rockerfeller Plaza","most_recent":"2018-10-20-1894036193260289815","count":1},{"id":"1728231644086801","lat":51.4622,"long":-0.2155,"name":"Sainsbury's","most_recent":"2018-04-26-1766351006768389759","count":1},{"id":"174806236587426","lat":51.5340876,"long":-0.1781548,"name":"Regents Park","most_recent":"2018-09-13-1867751213568006143","count":1},{"id":"1759107954307038","lat":51.47486,"long":-0.15326,"name":"Peace Pagoda","most_recent":"2018-01-16-1693452505513250940","count":1},{"id":"1763814","lat":51.5060174205,"long":-0.1167316932,"name":"Southbank Centre","most_recent":"2018-09-27-1877450874226360361","count":1},{"id":"1797188880543912","lat":41.3684833345,"long":2.1905870987,"name":"Hotel W Barcelona","most_recent":"2019-05-19-2047543338291666550","count":1},{"id":"180139879389203","lat":51.5081481506,"long":-0.127415657,"name":"Trafalgar Square","most_recent":"2013-09-17-547118086937602002","count":1},{"id":"1808797019371394","lat":47.49897,"long":19.0394,"name":"Castle District Apartment","most_recent":"2017-11-02-1639336611724157913","count":1},{"id":"1822331931395208","lat":51.454373,"long":-2.593795,"name":"St Nicholas Markets","most_recent":"2018-08-13-1845313857871069233","count":1},{"id":"1828070594091393","lat":40.7603744638,"long":-73.9761292934,"name":"UNIQLO USA","most_recent":"2018-10-20-1894005211094233680","count":1},{"id":"182963652361279","lat":40.65,"long":14.6333,"name":"Ravello, Amalfi Coast, Italy","most_recent":"2019-06-15-2067141476126562272","count":1},{"id":"183933995469694","lat":55.9755027,"long":-3.2544575,"name":"World Of Football","most_recent":"2018-07-22-1829262043056916597","count":1},{"id":"1844417779158421","lat":51.5207021172,"long":-0.0821268931,"name":"Appold Street","most_recent":"2018-03-06-1729372680569602436","count":1},{"id":"184784668767835","lat":51.506437,"long":-0.103978,"name":"Stamford Street","most_recent":"2018-07-30-1835133801655893259","count":1},{"id":"1859097704336124","lat":57.63734438,"long":-4.67782064,"name":"Blackwater Falls","most_recent":"2018-06-24-1808770261374412377","count":1},{"id":"1880636888925249","lat":51.5360993,"long":-0.2370451,"name":"St Paul's Cathedral","most_recent":"2018-08-21-1851114944815069810","count":1},{"id":"188316781216535","lat":57.6729029433,"long":-4.1696745533,"name":"Balblair (black Isle)","most_recent":"2017-11-18-1650663452871484598","count":1},{"id":"188706577894380","lat":51.52893,"long":-0.13261,"name":"Euston","most_recent":"2018-06-18-1804402003885281755","count":1},{"id":"19073285","lat":41.1487091,"long":-8.5987003,"name":"Campo 24 de Agosto","most_recent":"2018-12-04-1927243932028897276","count":1},{"id":"192947","lat":51.50909409,"long":-0.0984860952,"name":"Millennium Bridge (London)","most_recent":"2019-02-16-1980197481769663328","count":1},{"id":"1953826354904326","lat":40.7567394555,"long":-73.9890782579,"name":"AMC Empire 25","most_recent":"2018-10-21-1895093973349881490","count":1},{"id":"195515994348266","lat":55.62951,"long":12.63937,"name":"Copenhagen Airport (CPH)","most_recent":"2018-04-30-1768941326643361980","count":1},{"id":"1968305703249463","lat":51.5170923,"long":-0.0887609,"name":"Moorgate","most_recent":"2019-02-16-1980409338338097083","count":1},{"id":"19921713","lat":51.5171195301,"long":-0.1786845686,"name":"London Paddington Station","most_recent":"2018-01-18-1694614985396661534","count":1},{"id":"199939267079085","lat":55.9396139,"long":-3.1741228,"name":"Innocent Railway Tunnel","most_recent":"2018-02-17-1717076677006986800","count":1},{"id":"201068","lat":51.5146491,"long":-0.0806256,"name":"The Gherkin","most_recent":"2017-03-04-1462928789133791053","count":1},{"id":"2011254222421455","lat":52.055487,"long":-2.7174663,"name":"18 Broad Street","most_recent":"2018-01-28-1702228629613693589","count":1},{"id":"2013745031969227","lat":51.5101095,"long":-0.091093,"name":"Deliveroo","most_recent":"2018-05-17-1781552214818911750","count":1},{"id":"2023817","lat":52.5474211014,"long":13.3848912861,"name":"Flakturm Humboldthain","most_recent":"2016-06-09-1268652259518670739","count":1},{"id":"203889106311708","lat":52.9737883333,"long":0.8477333333,"name":"Wells Next to Sea","most_recent":"2021-10-31-2696865767675043523","count":1},{"id":"204713","lat":50.544651597152,"long":-3.495467758825,"name":"Teignmouth Beach","most_recent":"2019-08-26-2119069419127874933","count":1},{"id":"206056","lat":40.6905713,"long":-73.9899087,"name":"New York Transit Museum","most_recent":"2018-10-21-1895303295870818734","count":1},{"id":"2071499259763097","lat":51.5657752,"long":-0.1388468,"name":"Whittington Hospital","most_recent":"2018-07-08-1819183250199992067","count":1},{"id":"2074048349533035","lat":40.74222,"long":-74.00466,"name":"Highline - NYC","most_recent":"2018-10-22-1895743602051597989","count":1},{"id":"2074082","lat":48.14235,"long":11.58274,"name":"Bayerische Staatskanzlei","most_recent":"2019-11-09-2173590161701692271","count":1},{"id":"207501560059171","lat":51.4912836751,"long":-0.1204205902,"name":"Waterloo Station - London","most_recent":"2018-09-02-1859500906668733552","count":1},{"id":"2080892588822050","lat":51.492,"long":-0.22629,"name":"Hammersmith Bridge","most_recent":"2018-05-06-1773608395745801201","count":1},{"id":"2088076387909566","lat":52.25,"long":21,"name":"Polin Museum of the History of Polish Jews","most_recent":"2019-09-29-2143495634316016328","count":1},{"id":"210295399453621","lat":51.5061509075,"long":-0.126960762,"name":"Whitehall, London","most_recent":"2019-03-24-2006869435213849652","count":1},{"id":"21058","lat":55.9645698628,"long":-3.2099131247,"name":"Royal Botanic Garden Edinburgh","most_recent":"2019-03-31-2011619163000281674","count":1},{"id":"211140299491094","lat":40.7118426081,"long":-74.0127915833,"name":"9/11 Memorial Museum","most_recent":"2018-10-20-1894566116525629710","count":1},{"id":"2121811044708983","lat":57.53082,"long":-4.371,"name":"Kilcoy","most_recent":"2018-06-21-1806873020440317920","count":1},{"id":"212904104","lat":51.5017,"long":-0.1621,"name":"Knightsbridge","most_recent":"2018-07-01-1813834741233786458","count":1},{"id":"212918601","lat":40.7527110438,"long":-73.9774060157,"name":"Grand Central Terminal","most_recent":"2018-10-22-1895816216082206921","count":1},{"id":"213015084","lat":35.666302777778,"long":139.75867777778,"name":"Shimbashi Station","most_recent":"2019-09-14-2132436657436124698","count":1},{"id":"213063610","lat":41.3885176262,"long":2.185847841,"name":"Parc de la Ciutadella","most_recent":"2019-05-20-2047799157574809418","count":1},{"id":"213069183","lat":51.5025883353,"long":0.0043592565,"name":"The O2","most_recent":"2016-10-20-1365393833713828875","count":1},{"id":"213091680","lat":41.391111,"long":2.180556,"name":"Arc de Triomf","most_recent":"2019-05-19-2047221726122684940","count":1},{"id":"213301998","lat":51.4637694444,"long":-0.1677111111,"name":"Battersea","most_recent":"2018-01-25-1700074763778372890","count":1},{"id":"213357944","lat":40.7241324375,"long":-73.9978255614,"name":"Prince Street NYC Subway","most_recent":"2018-10-23-1896506749960298264","count":1},{"id":"213587299","lat":55.94821131,"long":-3.3637329161,"name":"Edinburgh Airport","most_recent":"2013-05-04-448162078714980068","count":1},{"id":"213636552","lat":51.0659103,"long":-1.7946,"name":"Salisbury Cathedral","most_recent":"2013-02-08-386962684494177390","count":1},{"id":"213645520","lat":52.52128,"long":13.4126999,"name":"Alexanderplatz Berlin","most_recent":"2016-06-09-1269096593154074604","count":1},{"id":"213676284","lat":52.5138888889,"long":13.3788888889,"name":"Memorial to the Murdered Jews of Europe","most_recent":"2016-06-09-1268651594687932288","count":1},{"id":"213691242","lat":51.4738,"long":-0.1991,"name":"Parsons Green","most_recent":"2018-07-17-1825471486257803615","count":1},{"id":"213691650","lat":47.5019444444,"long":19.0341666667,"name":"Matthias Church","most_recent":"2017-10-28-1635811973119408780","count":1},{"id":"213731821","lat":51.5508,"long":-0.1407,"name":"Kentish Town","most_recent":"2020-07-19-2356932250588919820","count":1},{"id":"213765957","lat":51.5184083333,"long":-0.1436916667,"name":"Broadcasting House","most_recent":"2018-01-31-1704609318006767827","count":1},{"id":"213833551","lat":51.5025,"long":-0.1777777778,"name":"Albert Memorial","most_recent":"2014-07-19-768155585519248486","count":1},{"id":"213968539","lat":41.904,"long":12.453,"name":"Vatican City","most_recent":"2018-02-19-1718370132563958622","count":1},{"id":"213975089","lat":41.3918008297,"long":2.1649382247,"name":"Casa Batlló - Gaudí Barcelona","most_recent":"2019-05-20-2047987141691316978","count":1},{"id":"214048251","lat":35.025278,"long":135.762222,"name":"Kyoto Imperial Palace","most_recent":"2019-09-20-2136914399867188611","count":1},{"id":"214428746","lat":41.8883333333,"long":12.4869444444,"name":"Palatine Hill","most_recent":"2018-02-20-1719014588011081661","count":1},{"id":"214513963","lat":38.8997200792,"long":-77.0053086827,"name":"Union Station, Washington D.C.","most_recent":"2018-10-17-1891848483149795262","count":1},{"id":"214528151","lat":47.4908333333,"long":19.0491666667,"name":"Elisabeth Bridge","most_recent":"2017-10-22-1631332934874848178","count":1},{"id":"214616096","lat":51.5339638928,"long":-0.1715288563,"name":"St John\u0026#x27;s Wood","most_recent":"2019-05-23-2050027107299480452","count":1},{"id":"214670845","lat":53.4786,"long":-2.2401,"name":"Chinatown, Manchester","most_recent":"2018-12-11-1932319954418467065","count":1},{"id":"2148304335215341","lat":51.52331328,"long":-0.10580679,"name":"The Three Kings","most_recent":"2019-08-23-2116637616463026256","count":1},{"id":"215688849","lat":35.6906,"long":139.706,"name":"Shinjuku","most_recent":"2019-09-14-2132380325534411862","count":1},{"id":"215933830","lat":47.50251,"long":19.05866,"name":"Operaház","most_recent":"2017-10-15-1626252877387206756","count":1},{"id":"216489075","lat":47.48669,"long":19.0588,"name":"Great Market Hall","most_recent":"2017-10-01-1616213874139150663","count":1},{"id":"216653105","lat":51.5072222222,"long":-0.1216666667,"name":"Victoria Embankment","most_recent":"2017-09-28-1613961322437670441","count":1},{"id":"216895733","lat":55.8622,"long":-4.2512,"name":"Glasgow Queen Street railway station","most_recent":"2020-03-01-2255340390871881755","count":1},{"id":"216928096","lat":50.7567832565,"long":0,"name":"Seven Sisters Cliffs","most_recent":"2021-04-26-2560423598098314385","count":1},{"id":"216938504","lat":55.9524166667,"long":-3.1932777778,"name":"Scott Monument","most_recent":"2013-04-15-434509104042174300","count":1},{"id":"216982612","lat":51.434463294,"long":-0.2142237504,"name":"Wimbledon","most_recent":"2017-09-09-1600164940232907393","count":1},{"id":"217072144","lat":51.485833,"long":-0.123056,"name":"Vauxhall station","most_recent":"2016-10-23-1367531403855795257","count":1},{"id":"217741019","lat":51.5549616664,"long":-0.1086168098,"name":"Arsenal Football Club. Emirates Stadium. Club Level.","most_recent":"2017-06-18-1539820185195973447","count":1},{"id":"217759446","lat":51.515894,"long":-0.091791,"name":"Guildhall, London","most_recent":"2018-08-07-1840972848945029294","count":1},{"id":"217923728","lat":55.95188,"long":-3.17305,"name":"The Scottish Parliament","most_recent":"2017-02-13-1449183557531864806","count":1},{"id":"218085806","lat":55.66713,"long":12.55506,"name":"Vesterbro, Copenhagen","most_recent":"2018-04-30-1769196676860712796","count":1},{"id":"218158450","lat":51.4425263356,"long":-0.294345291,"name":"Pembroke Lodge","most_recent":"2018-08-20-1850274536960880556","count":1},{"id":"218912105","lat":55.2113888889,"long":-6.5791666667,"name":"Dunluce Castle","most_recent":"2017-06-10-1534220914345038620","count":1},{"id":"219194787","lat":51.3,"long":-3,"name":"Somerset","most_recent":"2014-06-13-741997516615804760","count":1},{"id":"219217379","lat":51.5445,"long":-0.1033,"name":"London Borough of Islington","most_recent":"2020-07-14-2353286799696139549","count":1},{"id":"219971634","lat":25.245996303745,"long":55.355365276337,"name":"Dubai International","most_recent":"2019-09-12-2131020152156736235","count":1},{"id":"219990569","lat":52.5486111111,"long":13.3894444444,"name":"Berlin-Gesundbrunnen station","most_recent":"2016-06-09-1268650731475003241","count":1},{"id":"220013248","lat":52.249365225897,"long":20.993681531297,"name":"Muzeum Historii Żydów Polskich POLIN","most_recent":"2019-09-28-2142979675272673366","count":1},{"id":"220675188","lat":51.5041472132,"long":-0.1087770176,"name":"London Waterloo East railway station","most_recent":"2019-02-21-1984387016527197885","count":1},{"id":"220676","lat":37.0848918869,"long":-8.2666695459,"name":"Marina De Albufeira","most_recent":"2018-05-28-1789222055814002546","count":1},{"id":"220760334","lat":51.5157410252,"long":-0.0692352971,"name":"Algate East","most_recent":"2018-07-12-1822133045591883366","count":1},{"id":"224339136","lat":53.3776005908,"long":-3.2194903891,"name":"Hilbre Islands","most_recent":"2021-06-13-2595321936018929339","count":1},{"id":"224689121","lat":53.399525391367,"long":-2.9770411686953,"name":"Chinatown, Liverpool","most_recent":"2020-03-15-2265430193038637815","count":1},{"id":"224819531519429","lat":51.5171687807,"long":-0.1345181465,"name":"Digme Fitness","most_recent":"2019-02-17-1981211717677575668","count":1},{"id":"224884715","lat":54.4542222222,"long":-3.2115277778,"name":"Scafell Pike","most_recent":"2018-10-01-1880313798167096810","count":1},{"id":"224981053","lat":51.5138,"long":-0.0821,"name":"122 Leadenhall Street","most_recent":"2017-02-17-1452083591868701155","count":1},{"id":"225657810","lat":34.818038,"long":135.426675,"name":"Momofuku Ando Instant Ramen Museum","most_recent":"2019-09-20-2137074742958522470","count":1},{"id":"2257308391222612","lat":40.70478,"long":-74.00652,"name":"NYC Ferry Dumbo Pier 1","most_recent":"2018-10-21-1895271080243994111","count":1},{"id":"226659347811777","lat":38.8999449,"long":-77.0268456,"name":"Arc\u0026#x27;teryx Washington, DC","most_recent":"2018-10-18-1892748591793966827","count":1},{"id":"226745019","lat":51.5084138,"long":-0.1241156,"name":"Heaven Nightclub London","most_recent":"2018-09-27-1877918877023847189","count":1},{"id":"2268056","lat":51.509079479,"long":-0.0849235126,"name":"The northern and shell Building","most_recent":"2014-08-23-793331897510619114","count":1},{"id":"227153705","lat":51.53536586,"long":-0.1249327706,"name":"Granary Square","most_recent":"2019-04-28-2031851103313778730","count":1},{"id":"227577511","lat":51.5699583292,"long":-0.1481974125,"name":"Swain's Lane","most_recent":"2020-11-16-2444006270307620855","count":1},{"id":"227637205","lat":51.75,"long":-0.466667,"name":"Hemel Hempstead, Hertfordshire","most_recent":"2018-02-15-1715198144873890993","count":1},{"id":"227689514","lat":50.0837094591,"long":14.4338908529,"name":"Prague Main train station","most_recent":"2016-06-05-1266076682278364896","count":1},{"id":"227818793","lat":51.9984776046,"long":-0.7435103628,"name":"The National Museum of Computing","most_recent":"2017-09-02-1595087800823033193","count":1},{"id":"227966317","lat":51.4748,"long":-0.147,"name":"Queenstown Road  railway station","most_recent":"2018-04-23-1764166218628317165","count":1},{"id":"228080744","lat":51.513075,"long":-0.082375,"name":"Lloyd\u0026#x27;s building","most_recent":"2019-10-13-2153809442330687396","count":1},{"id":"228095220","lat":51.5228566,"long":-0.0804236,"name":"Horse \u0026 Groom","most_recent":"2018-03-20-1739498229781138737","count":1},{"id":"228177463","lat":39.962250364,"long":-75.143067338,"name":"Ben Franklin Bridge, Philadelphia.","most_recent":"2018-10-19-1893205450787321101","count":1},{"id":"228351480","lat":57.5667,"long":-4.56667,"name":"Contin, Highland, United Kingdom","most_recent":"2018-12-25-1942175691294429164","count":1},{"id":"228425711","lat":51.4242,"long":-0.230833,"name":"Cannizaro Park","most_recent":"2015-09-12-1072515694439655121","count":1},{"id":"228446958","lat":51.454,"long":-2.62071,"name":"Royal York Crescent","most_recent":"2018-08-13-1845098601324404618","count":1},{"id":"228453363","lat":51.5889169814,"long":-3.0000190173,"name":"Newport railway station","most_recent":"2021-07-28-2627966588693687469","count":1},{"id":"228594805","lat":51.512,"long":-0.111,"name":"Temple, London","most_recent":"2018-05-25-1787228208766598343","count":1},{"id":"228629336","lat":48.2278920819,"long":16.4034225461,"name":"Danube River","most_recent":"2016-06-04-1265240489332532387","count":1},{"id":"228679264341367","lat":41.905901,"long":12.4823709,"name":"Piazza di Spagna","most_recent":"2018-02-20-1719221034271115797","count":1},{"id":"229597514","lat":53.404298046,"long":-2.994908299,"name":"Port of Liverpool Building","most_recent":"2020-03-14-2264525553891754369","count":1},{"id":"229819782","lat":57.1443607041,"long":-2.0921648562,"name":"Aberdeen Harbour.","most_recent":"2013-02-27-400628507125441536","count":1},{"id":"229828900","lat":55.65194,"long":-3.19283,"name":"Peebles","most_recent":"2021-06-12-2594739505310203019","count":1},{"id":"230158975","lat":57.5425,"long":-4.0475,"name":"Inverness Airport","most_recent":"2016-03-04-1198549075425453456","count":1},{"id":"230440707","lat":51.4939604,"long":-0.1916686,"name":"Park Grand London Kensington","most_recent":"2018-05-14-1779322702211183671","count":1},{"id":"231329799","lat":51.516991302806,"long":-0.078444955417058,"name":"Devonshire Terrace","most_recent":"2020-01-26-2229790512381154958","count":1},{"id":"231988511","lat":51.463567218,"long":-0.2284987001,"name":"Putney Leisure Centre","most_recent":"2017-02-07-1444788066266365912","count":1},{"id":"232125371","lat":57.4897,"long":-4.13532,"name":"Culloden, Highland","most_recent":"2017-11-08-1643739131047802457","count":1},{"id":"232457266","lat":51.50607761,"long":-0.130785428,"name":"ICA","most_recent":"2018-09-26-1877062592925667547","count":1},{"id":"232953666","lat":50.7264,"long":-3.533,"name":"Exeter Central railway station","most_recent":"2019-08-24-2117780570670058236","count":1},{"id":"233107725","lat":55.8577533262,"long":-4.2551049308,"name":"St Enoch subway station","most_recent":"2019-03-17-2001461392598759138","count":1},{"id":"233362590","lat":51.491389,"long":-0.194722,"name":"Earl's Court tube station","most_recent":"2018-04-06-1751723194527331026","count":1},{"id":"233379139","lat":51.470154,"long":-0.237007,"name":"Barnes Common","most_recent":"2018-08-19-1849653439131429213","count":1},{"id":"233531586","lat":51.4996550408,"long":0.0082075596,"name":"Emirates Air Line Cable Car","most_recent":"2021-08-18-2642893665028925955","count":1},{"id":"234055016626433","lat":58.20107,"long":-6.68179,"name":"Standing stones, Callanish","most_recent":"2017-08-15-1582055034919803606","count":1},{"id":"234347633","lat":54.2667,"long":-8.48333,"name":"Sligo, Ireland","most_recent":"2017-05-23-1520863575349071180","count":1},{"id":"234378550","lat":55.6380555556,"long":12.5829444444,"name":"Bella Center Station","most_recent":"2018-05-01-1769915769989545953","count":1},{"id":"234499842","lat":57.4,"long":-5.5,"name":"Lochcarron","most_recent":"2016-06-12-1271065354740393059","count":1},{"id":"234695266","lat":35.625861872131,"long":139.7811599298,"name":"Palette Town","most_recent":"2019-09-13-2132059548813540895","count":1},{"id":"234939563","lat":40.7413,"long":-73.9893,"name":"23rd Street (BMT Broadway Line)","most_recent":"2018-10-20-1894617206117921754","count":1},{"id":"235057845","lat":47.4833,"long":19.05,"name":"Gellert, Budapest, Hungary","most_recent":"2017-11-05-1641477741874104330","count":1},{"id":"235547823","lat":50.09,"long":14.4186111111,"name":"Old New Synagogue","most_recent":"2016-06-05-1266079327860778863","count":1},{"id":"235698876","lat":41.36567,"long":2.12688,"name":"Santa Eulàlia, L\u0026#x27;Hospitalet","most_recent":"2019-05-20-2048021070204974356","count":1},{"id":"235717994","lat":50.09036111,"long":14.42083333,"name":"Spanish Synagogue","most_recent":"2016-06-06-1266852193736812388","count":1},{"id":"235894879","lat":52.3885758409,"long":13.5186008067,"name":"Berlin-Schönenfeld","most_recent":"2016-06-10-1269579297700144457","count":1},{"id":"236507657","lat":39.945,"long":-75.149444,"name":"Society Hill, Philadelphia","most_recent":"2018-10-18-1893135804981635549","count":1},{"id":"236585915","lat":41.8897222222,"long":12.4908333333,"name":"Arch of Constantine","most_recent":"2018-02-20-1718816558720934905","count":1},{"id":"236788522","lat":40.7647491304,"long":-73.9732260136,"name":"5Th Avenue Station N Q R","most_recent":"2018-10-24-1897015412105864726","count":1},{"id":"236962395","lat":57.48,"long":-4.223,"name":"Inverness railway station","most_recent":"2013-04-22-439536726706972373","count":1},{"id":"237000447","lat":47.5261449806,"long":19.0499850926,"name":"Margitszigeti Vadaskert","most_recent":"2017-10-18-1628523139436401478","count":1},{"id":"2375377","lat":51.5823793348,"long":-0.0902443836,"name":"Chestnuts Park","most_recent":"2020-11-22-2448129224029000149","count":1},{"id":"237833888","lat":51.501,"long":-0.125,"name":"Westminster tube station","most_recent":"2018-11-17-1914706472709868409","count":1},{"id":"237869541","lat":51.563048026,"long":-0.146193066,"name":"Holly Village, Highgate","most_recent":"2020-03-16-2266163638211456474","count":1},{"id":"238190662","lat":51.4981786919,"long":-0.0498145436,"name":"Canada Water station","most_recent":"2018-07-26-1832262810575391229","count":1},{"id":"238789257","lat":36.97861111,"long":139.395,"name":"Nikkō National Park","most_recent":"2019-09-16-2133968136943335220","count":1},{"id":"240833984","lat":48.1863446594,"long":16.3135456901,"name":"Schonnbraum Palace Vienna","most_recent":"2016-06-04-1265243787850638649","count":1},{"id":"240921839810636","lat":53.8006364,"long":-9.5355079,"name":"Westport Quay","most_recent":"2019-09-08-2128295014265126388","count":1},{"id":"240970375","lat":47.611567499,"long":13.0426829586,"name":"Kehlsteinhaus - Eagles Nest","most_recent":"2019-06-10-2063332986950033722","count":1},{"id":"241321117","lat":51.5197006302,"long":-0.0797890038,"name":"European Bank for Reconstruction and Development (EBRD)","most_recent":"2018-07-12-1822118928160217171","count":1},{"id":"241823616","lat":51.5445828957,"long":-0.1849750466,"name":"West Hampstead","most_recent":"2019-05-24-2050678796394410655","count":1},{"id":"242308944","lat":48.1364,"long":11.5942,"name":"Maximilianeum","most_recent":"2019-11-10-2174094550614865201","count":1},{"id":"243105268","lat":41.4040931285,"long":2.1748861385,"name":"Sagrada Família (Barcelona Metro)","most_recent":"2019-05-19-2047249674867549510","count":1},{"id":"243375495","lat":55.1833,"long":-7.05,"name":"Moville","most_recent":"2017-06-16-1538611434034887067","count":1},{"id":"2435482036683704","lat":51.50979,"long":-0.08506,"name":"Bank","most_recent":"2019-10-19-2157961659275153484","count":1},{"id":"243778166071082","lat":51.5148801989,"long":-0.2875718595,"name":"London Paddington","most_recent":"2018-08-12-1844512142993206058","count":1},{"id":"244562948","lat":57.5934018206,"long":-4.1131567955,"name":"Rosemarkie Beach Cafe","most_recent":"2019-06-20-2070444794529871866","count":1},{"id":"244690979","lat":41.8927777778,"long":12.4847222222,"name":"Arch of Septimius Severus","most_recent":"2018-02-20-1719000626565514584","count":1},{"id":"245167651","lat":57.4187591,"long":-5.7086519667,"name":"Applecross Pass","most_recent":"2016-06-12-1271065729040082048","count":1},{"id":"245513068","lat":51.507764,"long":-0.105051,"name":"One Blackfriars","most_recent":"2018-08-20-1850382917122124679","count":1},{"id":"245591672","lat":51.5535,"long":-0.1565,"name":"Gospel Oak","most_recent":"2020-11-01-2432782880141965607","count":1},{"id":"246534008","lat":51.4680271,"long":-0.2101501,"name":"The Eight Bells","most_recent":"2017-02-06-1444063311363888744","count":1},{"id":"246830845","lat":34.853455738936,"long":135.47189375277,"name":"Minoh Falls, Mino-O, Osaka","most_recent":"2019-09-20-2136972717788787036","count":1},{"id":"247510612","lat":57.5228,"long":-5.6505,"name":"Shieldaig","most_recent":"2016-06-12-1271081644410496887","count":1},{"id":"247571628","lat":52.9667,"long":0.85,"name":"Wells, Norfolk","most_recent":"2021-10-31-2696817895549972680","count":1},{"id":"248282192309354","lat":51.504861,"long":-0.170098,"name":"Hydepark","most_recent":"2018-06-20-1805710701836622233","count":1},{"id":"248626","lat":51.4966617273,"long":-0.1722848216,"name":"Victoria and Albert Museum","most_recent":"2018-12-09-1930847970325082500","count":1},{"id":"249417019","lat":51.5155027556,"long":-0.0723582135,"name":"One Commercial Street","most_recent":"2019-04-29-2032526375486872090","count":1},{"id":"249964308","lat":57.7333,"long":-7.11667,"name":"Sound of Harris","most_recent":"2017-07-30-1570355558123412353","count":1},{"id":"251230364","lat":51.5201523045,"long":-0.080831728499957,"name":"Exchange House","most_recent":"2019-11-03-2169195893461399459","count":1},{"id":"252214941","lat":57.3373,"long":-4.48,"name":"Drumnadrochit","most_recent":"2018-10-16-1891470691375644216","count":1},{"id":"252232","lat":51.4658715061,"long":-0.2386518308,"name":"Marc Bolan Memorial","most_recent":"2018-08-20-1849974117311398353","count":1},{"id":"252273076","lat":57.4717493411,"long":-4.2296724485,"name":"Ness Walk","most_recent":"2014-04-12-696838270551287726","count":1},{"id":"252373618","lat":57.1409116,"long":-2.113554,"name":"Downstairs","most_recent":"2016-04-03-1219861404125455546","count":1},{"id":"253048924","lat":51.4679941263,"long":-0.2108817238,"name":"Premier Inn London Putney Bridge","most_recent":"2018-04-19-1760815164187534601","count":1},{"id":"2535519263132831","lat":57.593394702429,"long":-4.1128539920785,"name":"Rosemarkie Bay","most_recent":"2019-12-19-2202368594917037012","count":1},{"id":"253608624","lat":35.3167,"long":139.35,"name":"Hiratsuka, Kanagawa","most_recent":"2019-09-17-2134764044110842529","count":1},{"id":"254107890","lat":51.5315,"long":-0.05566,"name":"Cambridge Heath","most_recent":"2020-09-27-2407490040956690283","count":1},{"id":"255040762","lat":51.5518416667,"long":-0.1620833333,"name":"Isokon building","most_recent":"2018-07-08-1819246725941114489","count":1},{"id":"255091255","lat":41.4035796032,"long":2.1739306231,"name":"Basílica de la Sagrada Família","most_recent":"2019-05-19-2047138482937265582","count":1},{"id":"255607048","lat":57.479,"long":-4.307,"name":"Bunchrew","most_recent":"2017-12-23-1676183137851257705","count":1},{"id":"255785356","lat":41.296944,"long":2.078333,"name":"Aeropuerto de Barcelona-El Prat","most_recent":"2019-05-18-2046139614489690251","count":1},{"id":"255880888","lat":40.74196,"long":-73.99016,"name":"23rd Street NR Subway Station","most_recent":"2018-10-22-1895453879974280186","count":1},{"id":"256190074","lat":47.4891757965,"long":19.0394997597,"name":"Budapest Garden of Philosophy","most_recent":"2017-10-16-1627103351208362247","count":1},{"id":"2575556","lat":51.4998970088,"long":-0.1279879845,"name":"Westminster Abbey","most_recent":"2013-09-17-547120611405293560","count":1},{"id":"258014836","lat":53.396262,"long":-3.181881,"name":"Hoylake Beach","most_recent":"2021-06-13-2595290986106869993","count":1},{"id":"258649627","lat":53.6219444444,"long":-9.3822222222,"name":"Lough Mask","most_recent":"2017-06-11-1535126772071524842","count":1},{"id":"258961468","lat":57.6,"long":-4.11667,"name":"Rosemarkie","most_recent":"2020-12-29-2474861793289098385","count":1},{"id":"259616545","lat":51.4831500225,"long":-0.1892730696,"name":"Chelsea, Newham, United Kingdom","most_recent":"2018-03-25-1742905235977586560","count":1},{"id":"260071463","lat":50.0834316865,"long":14.3950554591,"name":"Petrin Tower - Praha","most_recent":"2016-06-06-1266859360678274209","count":1},{"id":"260195178","lat":55.6666666667,"long":-5,"name":"Firth of Clyde","most_recent":"2021-07-11-2615763774261268099","count":1},{"id":"260590788","lat":55.6763,"long":12.5773,"name":"Bertel Thorvaldsens Plads","most_recent":"2018-05-05-1772638022846102319","count":1},{"id":"261616428","lat":57.153143336,"long":-2.0997359506,"name":"Mounthooly Roonaboot","most_recent":"2013-02-20-395499020066972672","count":1},{"id":"26226","lat":51.4543278175,"long":-2.6292514801,"name":"Clifton Suspension Bridge","most_recent":"2018-08-13-1845071978382244446","count":1},{"id":"262515028","lat":51.5217154432,"long":-0.0846661938,"name":"Wilson Street, EC2","most_recent":"2017-02-22-1455746565397518672","count":1},{"id":"263330791121676","lat":56.3563525393,"long":-4.0026758645,"name":"The Linn","most_recent":"2020-08-12-2373988614053875996","count":1},{"id":"264934950","lat":55.9365,"long":-3.2095,"name":"Merchiston","most_recent":"2018-07-22-1829113550543530877","count":1},{"id":"265245762","lat":51.5079657164,"long":-0.1103842151,"name":"Gabriel\u0026#x27;s Wharf","most_recent":"2019-01-23-1963356322355404484","count":1},{"id":"265973868","lat":35.7206,"long":139.71,"name":"Mejiro","most_recent":"2019-09-13-2131865249291277336","count":1},{"id":"266185814","lat":51.5163,"long":-0.1037,"name":"City Thameslink railway station","most_recent":"2018-06-03-1793411699581587137","count":1},{"id":"269306242","lat":40.74972222,"long":-73.96138889,"name":"Franklin D. Roosevelt Four Freedoms Park","most_recent":"2018-10-23-1896566982153609934","count":1},{"id":"269415978","lat":48.353805518,"long":11.791931947,"name":"Flughafen München Terminal 2","most_recent":"2019-06-08-2061713781880396730","count":1},{"id":"269751252","lat":41.1374398053,"long":-8.6096021026,"name":"Jardim Do Morro","most_recent":"2018-10-06-1884152903816496176","count":1},{"id":"2703726","lat":51.5550515453,"long":-0.108473235,"name":"Emirates Stadium","most_recent":"2020-07-28-2363475104857541157","count":1},{"id":"270678021","lat":57.5833,"long":-5.1,"name":"Achnasheen","most_recent":"2016-06-12-1271075119918966332","count":1},{"id":"270891488","lat":41.3904758018,"long":2.2023475356,"name":"Platja De La Nova Icaria","most_recent":"2019-05-18-2046606160413735623","count":1},{"id":"271132575","lat":57.5647012485,"long":-4.0334849405,"name":"Ardersier Village","most_recent":"2016-03-04-1198548087490700655","count":1},{"id":"272824910","lat":54.4833,"long":-3.16667,"name":"Seathwaite, Cumbria, United Kingdom","most_recent":"2018-10-03-1881850756064144733","count":1},{"id":"272956370","lat":51.5186,"long":-0.0813,"name":"Liverpool Street","most_recent":"2018-08-07-1841002506935855092","count":1},{"id":"273477937","lat":51.480556,"long":-0.194444,"name":"Fulham Broadway tube station","most_recent":"2018-04-03-1749634885001001916","count":1},{"id":"274145780","lat":41.9141666667,"long":12.4922222222,"name":"Villa Borghese gardens","most_recent":"2018-02-19-1718139915815662992","count":1},{"id":"274460566","lat":57.5754,"long":-4.4429,"name":"Maryburgh","most_recent":"2019-12-26-2207351960510846342","count":1},{"id":"274569516375636","lat":51.546129,"long":-0.075119699999959,"name":"Dalston Junction","most_recent":"2019-11-20-2181621037966513757","count":1},{"id":"275123166","lat":57.4333,"long":-5.41667,"name":"Strathcarron, Highland, United Kingdom","most_recent":"2016-06-12-1271064988913198156","count":1},{"id":"276541760","lat":51.4771,"long":0.1249,"name":"West Heath, London","most_recent":"2018-07-09-1819527480755815771","count":1},{"id":"278411625","lat":58.0303,"long":-5.45344,"name":"Summer Isles","most_recent":"2018-02-10-1711665745212782611","count":1},{"id":"278676270","lat":51.4705132251,"long":-0.2221922915,"name":"Leaders Gardens Putney","most_recent":"2017-12-09-1666070559523152764","count":1},{"id":"278689465","lat":56.936,"long":-4.244,"name":"Dalwhinnie","most_recent":"2017-06-24-1544239178143836089","count":1},{"id":"281556819231410","lat":51.5360308617,"long":-0.1264005047,"name":"Coal Drops Yard","most_recent":"2020-07-19-2356572732247851630","count":1},{"id":"283079521","lat":54.3578,"long":-3.07167,"name":"Coniston Hall","most_recent":"2015-01-12-896246644450486107","count":1},{"id":"283096611","lat":46.74315,"long":11.63583,"name":"Varna, Italy","most_recent":"2019-06-14-2065909331949421889","count":1},{"id":"283115885496791","lat":51.5097374068,"long":-0.1345825195,"name":"Piccadilly Circus","most_recent":"2019-02-24-1986624709227416539","count":1},{"id":"283446743","lat":55.4534296771,"long":-4.6044167025,"name":"Galloway Forest Park","most_recent":"2021-07-08-2613155577088252988","count":1},{"id":"28370","lat":57.146714435,"long":-2.1009599978,"name":"Slains Castle Aberdeen","most_recent":"2015-11-23-1124776899430278371","count":1},{"id":"284794972","lat":50.0833,"long":14.4333,"name":"Národní galerie","most_recent":"2016-06-07-1267279537991542560","count":1},{"id":"294895605","lat":51.5712,"long":-0.1009,"name":"Finsbury Park","most_recent":"2020-11-16-2444005407371537180","count":1},{"id":"295101020969786","lat":55.6723410557,"long":12.5653036702,"name":"Copenhagen Central Station","most_recent":"2018-05-05-1772641213469828041","count":1},{"id":"296244364130203","lat":51.567761,"long":-0.138742,"name":"Highgate Hill","most_recent":"2021-11-09-2703316924014276898","count":1},{"id":"29908","lat":51.5088888889,"long":-0.0944444444,"name":"Southwark Bridge","most_recent":"2016-09-13-1338555015362973208","count":1},{"id":"302375","lat":51.5877,"long":-2.9983,"name":"Newport, Wales","most_recent":"2017-04-17-1494820949420196158","count":1},{"id":"30346910","lat":58.044,"long":-5.2088111111,"name":"Stac Pollaidh","most_recent":"2013-06-04-470685217483089087","count":1},{"id":"304397107135182","lat":52.2260537535,"long":21.1521592939,"name":"Palace of Culture\u0026amp;science","most_recent":"2019-09-29-2143885189905048833","count":1},{"id":"304446964","lat":51.494468888301,"long":-0.14613320042734,"name":"Google UK Ltd","most_recent":"2019-10-25-2162632987391537300","count":1},{"id":"306023027","lat":51.5072198599,"long":-0.1222268122,"name":"Embankment tube station","most_recent":"2018-07-08-1819130314467889849","count":1},{"id":"307365235","lat":59.1667,"long":18.2331,"name":"Tyresta, Stockholms Län, Sweden","most_recent":"2013-05-04-448407322018670232","count":1},{"id":"313238312524577","lat":34.67438474,"long":135.50421513,"name":"BIC Camera 道頓掘","most_recent":"2019-09-17-2134965069367462091","count":1},{"id":"314105910","lat":34.853376310837,"long":135.47194971639,"name":"Meiji no Mori Minō Quasi-National Park","most_recent":"2019-09-20-2137023966001382732","count":1},{"id":"31499759","lat":41.9,"long":12.5,"name":"Rome, Italy","most_recent":"2018-02-19-1718067219828548323","count":1},{"id":"316380905","lat":57.73529529,"long":-4.93506124,"name":"Loch Droma","most_recent":"2017-01-12-1425988015092087128","count":1},{"id":"319189737","lat":51.464452255,"long":-0.1857913761,"name":"Waterfront Bar Battersea Reach","most_recent":"2018-04-25-1765197322172985250","count":1},{"id":"320492","lat":51.557,"long":-0.03,"name":"Hackney Marshes","most_recent":"2015-08-15-1052003009746920900","count":1},{"id":"320951228328298","lat":51.5112618874,"long":-0.103668195,"name":"Digme Fitness","most_recent":"2018-05-25-1787224321854613219","count":1},{"id":"323018168525053","lat":50.3641039,"long":-4.1343633,"name":"Cremyll Ferry","most_recent":"2021-09-22-2668409424760045532","count":1},{"id":"3232735","lat":48.1326,"long":11.5421,"name":"Deutsches Museum Verkehrszentrum","most_recent":"2019-11-09-2173487944667579056","count":1},{"id":"325449585","lat":35.7325,"long":139.715,"name":"Toshima, Tokyo","most_recent":"2019-09-13-2131920107348421534","count":1},{"id":"3260535","lat":51.4697222222,"long":-0.1794444444,"name":"London Heliport","most_recent":"2018-07-16-1825016581147808749","count":1},{"id":"330752922","lat":57.3458263262,"long":-2.5431565165,"name":"Old Rayne, Aberdeenshire, United Kingdom","most_recent":"2016-05-03-1242130497188619310","count":1},{"id":"331697778","lat":57.082153645,"long":-4.0493268667,"name":"Creag Bheag, Kingussie","most_recent":"2015-09-12-1072584584792335413","count":1},{"id":"334423883","lat":51.5245369822,"long":-0.076530545,"name":"Albion","most_recent":"2017-09-04-1596656730507070727","count":1},{"id":"336831774","lat":40.7850888889,"long":-73.960475,"name":"Jacqueline Kennedy Onassis Reservoir","most_recent":"2018-10-22-1895486884155603155","count":1},{"id":"337748635","lat":51.513333,"long":-0.158333,"name":"Marble Arch tube station","most_recent":"2017-01-17-1429697236367302945","count":1},{"id":"339723898","lat":40.7569475,"long":-73.98650474,"name":"1501 Broadway Yankee Store","most_recent":"2018-10-22-1895781108826698631","count":1},{"id":"341579839","lat":52.1324394551,"long":-0.9053312551,"name":"Stoke Bruene","most_recent":"2016-10-31-1373025079394827412","count":1},{"id":"34161","lat":51.5075140444,"long":-0.1127316722,"name":"IBM South Bank","most_recent":"2018-07-25-1831259387113671794","count":1},{"id":"34199","lat":51.4811111111,"long":-0.1725,"name":"Battersea Bridge","most_recent":"2013-03-19-415145076937418731","count":1},{"id":"342602273","lat":51.5464,"long":-0.0601,"name":"Hackney Central","most_recent":"2021-06-23-2602420211532345766","count":1},{"id":"3441594","lat":55.8654509214,"long":-4.3059019297,"name":"Riverside Museum","most_recent":"2019-03-16-2001047513704167438","count":1},{"id":"34439644","lat":51.5862,"long":-0.1386,"name":"Muswell Hill","most_recent":"2021-05-12-2572066234223730312","count":1},{"id":"345278458","lat":54.5333333333,"long":-3.0666666667,"name":"Thirlmere","most_recent":"2018-10-02-1881433341740304505","count":1},{"id":"345658032","lat":40.6504781436,"long":14.6274060688,"name":"Basilica Di S. Trofimena Minori (Sa) Italy","most_recent":"2019-06-16-2067157755831140315","count":1},{"id":"347871632741522","lat":57.6475480526,"long":-4.2102193224,"name":"Balblair, Highland","most_recent":"2020-12-30-2475448588783331141","count":1},{"id":"348052800","lat":51.5076714,"long":-0.05969,"name":"Tobacco Dock Venue LTD","most_recent":"2017-04-18-1495578922757227330","count":1},{"id":"349097199169482","lat":51.507973,"long":-0.105807,"name":"1Rebel South Bank","most_recent":"2018-11-27-1922054429419481873","count":1},{"id":"349302332230968","lat":55.67993,"long":12.59104,"name":"Nyhavn","most_recent":"2018-05-05-1772635808404493703","count":1},{"id":"352911994","lat":51.53498,"long":-0.12185,"name":"Kings Place","most_recent":"2019-04-28-2031860537738081402","count":1},{"id":"353783725","lat":51.5145,"long":-0.13861,"name":"Great Marlborough Street","most_recent":"2018-09-12-1867085380652061505","count":1},{"id":"35413","lat":51.505149185829,"long":-0.075584744260704,"name":"Tower Bridge","most_recent":"2019-11-17-2179432018427809318","count":1},{"id":"357689943","lat":57.15,"long":-7.31,"name":"Lochboisdale","most_recent":"2017-07-02-1550157171612741515","count":1},{"id":"360165708","lat":57.682389151481,"long":-4.0376754778847,"name":"The Cromarty Harbour","most_recent":"2019-12-21-2203833352207878049","count":1},{"id":"360613013","lat":51.57798,"long":-0.33741,"name":"Harrow, United Kingdom","most_recent":"2020-11-22-2448133772659536712","count":1},{"id":"360638451248497","lat":51.5057107383,"long":-0.1167726517,"name":"Southbank Centre","most_recent":"2019-07-29-2098945229502665490","count":1},{"id":"361816889","lat":54.43267,"long":-2.96317,"name":"Ambleside","most_recent":"2021-11-17-2708819177525500381","count":1},{"id":"366527482","lat":35.8667,"long":139.65,"name":"Saitama-shi, Saitama, Japan","most_recent":"2019-09-15-2133399636415852144","count":1},{"id":"371879370","lat":41.4145,"long":2.1527,"name":"Parc Guell","most_recent":"2019-05-18-2046637379650305758","count":1},{"id":"380866102","lat":57.5342,"long":-4.44168,"name":"Bishop Kinkell","most_recent":"2018-06-21-1806841930690513782","count":1},{"id":"388525291","lat":57.6,"long":-4.33333,"name":"Culbokie","most_recent":"2016-12-27-1414572306399061121","count":1},{"id":"396077503","lat":47.507385378,"long":19.046414624,"name":"Parlamento Budapest","most_recent":"2017-10-13-1624881928817369811","count":1},{"id":"3973841","lat":40.6918099,"long":-73.98299,"name":"Dekalb Market","most_recent":"2018-10-21-1895356911960842520","count":1},{"id":"397946138","lat":41.139863,"long":-8.609336,"name":"Ponte de D. Luís","most_recent":"2018-10-05-1883722243511519988","count":1},{"id":"399895906","lat":51.5296191611,"long":-0.0643652721,"name":"Ion Square Gardens","most_recent":"2021-01-09-2482926693353761986","count":1},{"id":"40152868","lat":47.4517165611,"long":8.5610321101,"name":"Zürich Airport","most_recent":"2018-02-18-1717575660729120740","count":1},{"id":"403087946","lat":51.4741,"long":-0.2352,"name":"Barnes, London","most_recent":"2017-01-27-1436887576291538288","count":1},{"id":"404139116","lat":58.2083826196,"long":-6.3876604045,"name":"Stornoway, Isle of Lewis","most_recent":"2017-08-17-1583647165824111563","count":1},{"id":"408070949667116","lat":51.5061517,"long":-0.1152116,"name":"BFI Southbank","most_recent":"2018-09-01-1859069796574910485","count":1},{"id":"410465","lat":48.1849018533,"long":16.3122081757,"name":"Schloß Schönbrunn","most_recent":"2016-06-04-1265239082135151727","count":1},{"id":"413864609","lat":51.5423,"long":-0.0025611111,"name":"Stratford, London","most_recent":"2017-05-06-1508557629423704470","count":1},{"id":"413973738","lat":55.66891,"long":12.56078,"name":"Kødbyens Høker","most_recent":"2018-05-03-1771387314485087106","count":1},{"id":"418710948505186","lat":57.69309,"long":-4.76771,"name":"The Aultguish Inn","most_recent":"2017-08-09-1577735010297864547","count":1},{"id":"420196505","lat":51.5097222222,"long":-0.1044444444,"name":"Blackfriars Bridge","most_recent":"2018-11-28-1922847006854897832","count":1},{"id":"424848648105183","lat":48.15,"long":11.5833,"name":"Eisbachwelle München","most_recent":"2019-11-10-2173930979226489374","count":1},{"id":"426478890","lat":51.5119694444,"long":-0.1228,"name":"Covent Garden","most_recent":"2015-09-12-1072517145257797380","count":1},{"id":"431492882","lat":51.5369771638,"long":-0.1280365081,"name":"Gasholder","most_recent":"2020-07-19-2356320147083470928","count":1},{"id":"433850190350464","lat":51.507409,"long":-0.100189,"name":"Blavatnik Building","most_recent":"2019-01-14-1956677838069344049","count":1},{"id":"434039881","lat":51.5144444444,"long":-0.0802777778,"name":"Gherkin","most_recent":"2017-02-18-1452774333129765844","count":1},{"id":"434917697","lat":57.6333333333,"long":-3.6333333333,"name":"River Findhorn","most_recent":"2017-11-17-1650070716053145109","count":1},{"id":"4359255","lat":47.5159,"long":19.075,"name":"ibis Budapest Heroes Square","most_recent":"2017-10-29-1636454063373398956","count":1},{"id":"437009780180462","lat":45.43922,"long":10.94854,"name":"San Massimo","most_recent":"2019-06-14-2066095891336485243","count":1},{"id":"442293019","lat":57.5659,"long":-4.37599,"name":"Easter Kinkell","most_recent":"2016-01-10-1159597875837756459","count":1},{"id":"443226732750724","lat":40.6447238,"long":-74.0768421,"name":"Staten Island Ferry Terminal Lot C","most_recent":"2018-10-21-1894737792165044633","count":1},{"id":"445929572","lat":51.5303,"long":-0.1236,"name":"Kings Cross, London","most_recent":"2017-04-09-1489017177041403338","count":1},